[
  {
    "name": "Bucharest", 
    "lat": "44.4325", 
    "lng": "26.1039", 
    "country": "Romania", 
    "iso2": "RO", 
    "admin_name": "Bucuresti", 
    "capital": "primary", 
    "population": "1883425", 
    "population_proper": "1716983"
  }, 
  {
    "name": "Cluj-Napoca", 
    "lat": "46.7667", 
    "lng": "23.5833", 
    "country": "Romania", 
    "iso2": "RO", 
    "admin_name": "Cluj", 
    "capital": "admin", 
    "population": "324576", 
    "population_proper": "286598"
  }, 
  {
    "name": "Timisoara", 
    "lat": "45.7597", 
    "lng": "21.2300", 
    "country": "Romania", 
    "iso2": "RO", 
    "admin_name": "Timis", 
    "capital": "admin", 
    "population": "319279", 
    "population_proper": "250849"
  }, 
  {
    "name": "Brasov", 
    "lat": "45.6667", 
    "lng": "25.6167", 
    "country": "Romania", 
    "iso2": "RO", 
    "admin_name": "Brasov", 
    "capital": "admin", 
    "population": "290743", 
    "population_proper": "237589"
  }, 
  {
    "name": "Iasi", 
    "lat": "47.1622", 
    "lng": "27.5889", 
    "country": "Romania", 
    "iso2": "RO", 
    "admin_name": "Iasi", 
    "capital": "admin", 
    "population": "290422", 
    "population_proper": "271692"
  }, 
  {
    "name": "Constanta", 
    "lat": "44.1667", 
    "lng": "28.6333", 
    "country": "Romania", 
    "iso2": "RO", 
    "admin_name": "Constanta", 
    "capital": "admin", 
    "population": "283872", 
    "population_proper": "263707"
  }, 
  {
    "name": "Craiova", 
    "lat": "44.3333", 
    "lng": "23.8167", 
    "country": "Romania", 
    "iso2": "RO", 
    "admin_name": "Dolj", 
    "capital": "admin", 
    "population": "269506", 
    "population_proper": "234140"
  }, 
  {
    "name": "Galati", 
    "lat": "45.4233", 
    "lng": "28.0425", 
    "country": "Romania", 
    "iso2": "RO", 
    "admin_name": "Galati", 
    "capital": "admin", 
    "population": "249432", 
    "population_proper": "217851"
  }, 
  {
    "name": "Ploiesti", 
    "lat": "44.9411", 
    "lng": "26.0225", 
    "country": "Romania", 
    "iso2": "RO", 
    "admin_name": "Prahova", 
    "capital": "admin", 
    "population": "209945", 
    "population_proper": "180539"
  }, 
  {
    "name": "Oradea", 
    "lat": "47.0722", 
    "lng": "21.9211", 
    "country": "Romania", 
    "iso2": "RO", 
    "admin_name": "Bihor", 
    "capital": "admin", 
    "population": "196367", 
    "population_proper": "183105"
  }, 
  {
    "name": "Braila", 
    "lat": "45.2692", 
    "lng": "27.9575", 
    "country": "Romania", 
    "iso2": "RO", 
    "admin_name": "Braila", 
    "capital": "admin", 
    "population": "180302", 
    "population_proper": "154686"
  }, 
  {
    "name": "Arad", 
    "lat": "46.1750", 
    "lng": "21.3125", 
    "country": "Romania", 
    "iso2": "RO", 
    "admin_name": "Arad", 
    "capital": "admin", 
    "population": "159074", 
    "population_proper": "145078"
  }, 
  {
    "name": "Pitesti", 
    "lat": "44.8606", 
    "lng": "24.8678", 
    "country": "Romania", 
    "iso2": "RO", 
    "admin_name": "Arges", 
    "capital": "admin", 
    "population": "155383", 
    "population_proper": "141275"
  }, 
  {
    "name": "Sibiu", 
    "lat": "45.7928", 
    "lng": "24.1519", 
    "country": "Romania", 
    "iso2": "RO", 
    "admin_name": "Sibiu", 
    "capital": "admin", 
    "population": "147245", 
    "population_proper": "134308"
  }, 
  {
    "name": "Bacau", 
    "lat": "46.5833", 
    "lng": "26.9167", 
    "country": "Romania", 
    "iso2": "RO", 
    "admin_name": "Bacau", 
    "capital": "admin", 
    "population": "144307", 
    "population_proper": "136102"
  }, 
  {
    "name": "Targu-Mures", 
    "lat": "46.5456", 
    "lng": "24.5625", 
    "country": "Romania", 
    "iso2": "RO", 
    "admin_name": "Mures", 
    "capital": "admin", 
    "population": "134290", 
    "population_proper": "116033"
  }, 
  {
    "name": "Baia Mare", 
    "lat": "47.6667", 
    "lng": "23.5833", 
    "country": "Romania", 
    "iso2": "RO", 
    "admin_name": "Maramures", 
    "capital": "admin", 
    "population": "123738", 
    "population_proper": "108759"
  }, 
  {
    "name": "Buzau", 
    "lat": "45.1531", 
    "lng": "26.8208", 
    "country": "Romania", 
    "iso2": "RO", 
    "admin_name": "Buzau", 
    "capital": "admin", 
    "population": "115494", 
    "population_proper": "103481"
  }, 
  {
    "name": "Botosani", 
    "lat": "47.7486", 
    "lng": "26.6694", 
    "country": "Romania", 
    "iso2": "RO", 
    "admin_name": "Botosani", 
    "capital": "admin", 
    "population": "106847", 
    "population_proper": "89987"
  }, 
  {
    "name": "Satu Mare", 
    "lat": "47.7900", 
    "lng": "22.8900", 
    "country": "Romania", 
    "iso2": "RO", 
    "admin_name": "Satu Mare", 
    "capital": "admin", 
    "population": "102411", 
    "population_proper": "91520"
  }, 
  {
    "name": "Ramnicu Valcea", 
    "lat": "45.1047", 
    "lng": "24.3756", 
    "country": "Romania", 
    "iso2": "RO", 
    "admin_name": "Valcea", 
    "capital": "admin", 
    "population": "98776", 
    "population_proper": "93151"
  }, 
  {
    "name": "Drobeta-Turnu Severin", 
    "lat": "44.6333", 
    "lng": "22.6500", 
    "country": "Romania", 
    "iso2": "RO", 
    "admin_name": "Mehedinti", 
    "capital": "admin", 
    "population": "92617", 
    "population_proper": "79865"
  }, 
  {
    "name": "Suceava", 
    "lat": "47.6514", 
    "lng": "26.2556", 
    "country": "Romania", 
    "iso2": "RO", 
    "admin_name": "Suceava", 
    "capital": "admin", 
    "population": "92121", 
    "population_proper": "84308"
  }, 
  {
    "name": "Piatra Neamt", 
    "lat": "46.9275", 
    "lng": "26.3708", 
    "country": "Romania", 
    "iso2": "RO", 
    "admin_name": "Neamt", 
    "capital": "admin", 
    "population": "85055", 
    "population_proper": "79679"
  }, 
  {
    "name": "Resita", 
    "lat": "45.3008", 
    "lng": "21.8892", 
    "country": "Romania", 
    "iso2": "RO", 
    "admin_name": "Caras-Severin", 
    "capital": "admin", 
    "population": "83324", 
    "population_proper": "83324"
  }, 
  {
    "name": "Targu Jiu", 
    "lat": "45.0342", 
    "lng": "23.2747", 
    "country": "Romania", 
    "iso2": "RO", 
    "admin_name": "Gorj", 
    "capital": "admin", 
    "population": "82504", 
    "population_proper": "73544"
  }, 
  {
    "name": "Targoviste", 
    "lat": "44.9244", 
    "lng": "25.4572", 
    "country": "Romania", 
    "iso2": "RO", 
    "admin_name": "Dambovita", 
    "capital": "admin", 
    "population": "79610", 
    "population_proper": "66965"
  }, 
  {
    "name": "Focsani", 
    "lat": "45.7000", 
    "lng": "27.1797", 
    "country": "Romania", 
    "iso2": "RO", 
    "admin_name": "Vrancea", 
    "capital": "admin", 
    "population": "79315", 
    "population_proper": "66719"
  }, 
  {
    "name": "Bistrita", 
    "lat": "47.1333", 
    "lng": "24.5000", 
    "country": "Romania", 
    "iso2": "RO", 
    "admin_name": "Bistrita-Nasaud", 
    "capital": "admin", 
    "population": "78877", 
    "population_proper": "78877"
  }, 
  {
    "name": "Tulcea", 
    "lat": "45.1900", 
    "lng": "28.8000", 
    "country": "Romania", 
    "iso2": "RO", 
    "admin_name": "Tulcea", 
    "capital": "admin", 
    "population": "73707", 
    "population_proper": "65624"
  }, 
  {
    "name": "Slatina", 
    "lat": "44.4297", 
    "lng": "24.3642", 
    "country": "Romania", 
    "iso2": "RO", 
    "admin_name": "Olt", 
    "capital": "admin", 
    "population": "70293", 
    "population_proper": "63487"
  }, 
  {
    "name": "Calarasi", 
    "lat": "44.2000", 
    "lng": "27.3333", 
    "country": "Romania", 
    "iso2": "RO", 
    "admin_name": "Calarasi", 
    "capital": "admin", 
    "population": "65181", 
    "population_proper": "58215"
  }, 
  {
    "name": "Alba Iulia", 
    "lat": "46.0669", 
    "lng": "23.5700", 
    "country": "Romania", 
    "iso2": "RO", 
    "admin_name": "Alba", 
    "capital": "admin", 
    "population": "64227", 
    "population_proper": "64227"
  }, 
  {
    "name": "Vaslui", 
    "lat": "46.6383", 
    "lng": "27.7292", 
    "country": "Romania", 
    "iso2": "RO", 
    "admin_name": "Vaslui", 
    "capital": "admin", 
    "population": "63035", 
    "population_proper": "63035"
  }, 
  {
    "name": "Giurgiu", 
    "lat": "43.9008", 
    "lng": "25.9739", 
    "country": "Romania", 
    "iso2": "RO", 
    "admin_name": "Giurgiu", 
    "capital": "admin", 
    "population": "61353", 
    "population_proper": "54551"
  }, 
  {
    "name": "Deva", 
    "lat": "45.8781", 
    "lng": "22.9144", 
    "country": "Romania", 
    "iso2": "RO", 
    "admin_name": "Hunedoara", 
    "capital": "", 
    "population": "61123", 
    "population_proper": "53113"
  }, 
  {
    "name": "Hunedoara", 
    "lat": "45.7697", 
    "lng": "22.9203", 
    "country": "Romania", 
    "iso2": "RO", 
    "admin_name": "Hunedoara", 
    "capital": "admin", 
    "population": "60525", 
    "population_proper": "50457"
  }, 
  {
    "name": "Zalau", 
    "lat": "47.1911", 
    "lng": "23.0572", 
    "country": "Romania", 
    "iso2": "RO", 
    "admin_name": "Salaj", 
    "capital": "admin", 
    "population": "56202", 
    "population_proper": "52132"
  }, 
  {
    "name": "Sfantu-Gheorghe", 
    "lat": "45.8636", 
    "lng": "25.7875", 
    "country": "Romania", 
    "iso2": "RO", 
    "admin_name": "Covasna", 
    "capital": "admin", 
    "population": "56006", 
    "population_proper": "50080"
  }, 
  {
    "name": "Barlad", 
    "lat": "46.2167", 
    "lng": "27.6667", 
    "country": "Romania", 
    "iso2": "RO", 
    "admin_name": "Vaslui", 
    "capital": "", 
    "population": "55837", 
    "population_proper": "52475"
  }, 
  {
    "name": "Popesti-Leordeni", 
    "lat": "44.3800", 
    "lng": "26.1700", 
    "country": "Romania", 
    "iso2": "RO", 
    "admin_name": "Ilfov", 
    "capital": "", 
    "population": "53431", 
    "population_proper": "53431"
  }, 
  {
    "name": "Roman", 
    "lat": "46.9300", 
    "lng": "26.9300", 
    "country": "Romania", 
    "iso2": "RO", 
    "admin_name": "Neamt", 
    "capital": "", 
    "population": "50713", 
    "population_proper": "48644"
  }, 
  {
    "name": "Turda", 
    "lat": "46.5667", 
    "lng": "23.7833", 
    "country": "Romania", 
    "iso2": "RO", 
    "admin_name": "Cluj", 
    "capital": "", 
    "population": "47744", 
    "population_proper": "43319"
  }, 
  {
    "name": "Voluntari", 
    "lat": "44.4925", 
    "lng": "26.1914", 
    "country": "Romania", 
    "iso2": "RO", 
    "admin_name": "Bucuresti", 
    "capital": "", 
    "population": "47366", 
    "population_proper": "47366"
  }, 
  {
    "name": "Media", 
    "lat": "46.1500", 
    "lng": "24.3500", 
    "country": "Romania", 
    "iso2": "RO", 
    "admin_name": "Sibiu", 
    "capital": "", 
    "population": "47204", 
    "population_proper": "39505"
  }, 
  {
    "name": "Slobozia", 
    "lat": "44.5639", 
    "lng": "27.3661", 
    "country": "Romania", 
    "iso2": "RO", 
    "admin_name": "Ialomita", 
    "capital": "admin", 
    "population": "45891", 
    "population_proper": "41553"
  }, 
  {
    "name": "Alexandria", 
    "lat": "43.9686", 
    "lng": "25.3333", 
    "country": "Romania", 
    "iso2": "RO", 
    "admin_name": "Teleorman", 
    "capital": "admin", 
    "population": "45434", 
    "population_proper": "40390"
  }, 
  {
    "name": "Miercurea-Ciuc", 
    "lat": "46.3594", 
    "lng": "25.8017", 
    "country": "Romania", 
    "iso2": "RO", 
    "admin_name": "Harghita", 
    "capital": "admin", 
    "population": "42029", 
    "population_proper": "42029"
  }, 
  {
    "name": "Lugoj", 
    "lat": "45.7056", 
    "lng": "21.9258", 
    "country": "Romania", 
    "iso2": "RO", 
    "admin_name": "Timis", 
    "capital": "", 
    "population": "40361", 
    "population_proper": "35450"
  }, 
  {
    "name": "Bragadiru", 
    "lat": "44.3708", 
    "lng": "25.9750", 
    "country": "Romania", 
    "iso2": "RO", 
    "admin_name": "Ilfov", 
    "capital": "", 
    "population": "40080", 
    "population_proper": "40080"
  }, 
  {
    "name": "Medgidia", 
    "lat": "44.2503", 
    "lng": "28.2614", 
    "country": "Romania", 
    "iso2": "RO", 
    "admin_name": "Constanta", 
    "capital": "", 
    "population": "39780", 
    "population_proper": "34612"
  }, 
  {
    "name": "Onesti", 
    "lat": "46.2586", 
    "lng": "26.7692", 
    "country": "Romania", 
    "iso2": "RO", 
    "admin_name": "Bacau", 
    "capital": "", 
    "population": "39172", 
    "population_proper": "34005"
  }, 
  {
    "name": "Sighetu Marmatiei", 
    "lat": "47.9286", 
    "lng": "23.8925", 
    "country": "Romania", 
    "iso2": "RO", 
    "admin_name": "Maramures", 
    "capital": "", 
    "population": "37640", 
    "population_proper": "32795"
  }, 
  {
    "name": "Petrosani", 
    "lat": "45.4122", 
    "lng": "23.3733", 
    "country": "Romania", 
    "iso2": "RO", 
    "admin_name": "Hunedoara", 
    "capital": "", 
    "population": "37160", 
    "population_proper": "31044"
  }, 
  {
    "name": "Mangalia", 
    "lat": "43.8172", 
    "lng": "28.5828", 
    "country": "Romania", 
    "iso2": "RO", 
    "admin_name": "Constanta", 
    "capital": "", 
    "population": "36364", 
    "population_proper": "31950"
  }, 
  {
    "name": "Tecuci", 
    "lat": "45.8467", 
    "lng": "27.4278", 
    "country": "Romania", 
    "iso2": "RO", 
    "admin_name": "Galati", 
    "capital": "", 
    "population": "34871", 
    "population_proper": "32801"
  }, 
  {
    "name": "Navodari", 
    "lat": "44.3211", 
    "lng": "28.6133", 
    "country": "Romania", 
    "iso2": "RO", 
    "admin_name": "Constanta", 
    "capital": "", 
    "population": "34398", 
    "population_proper": "34398"
  }, 
  {
    "name": "Odorheiu Secuiesc", 
    "lat": "46.3139", 
    "lng": "25.3017", 
    "country": "Romania", 
    "iso2": "RO", 
    "admin_name": "Harghita", 
    "capital": "", 
    "population": "34257", 
    "population_proper": "31335"
  }, 
  {
    "name": "Ramnicu Sarat", 
    "lat": "45.3800", 
    "lng": "27.0600", 
    "country": "Romania", 
    "iso2": "RO", 
    "admin_name": "Buzau", 
    "capital": "", 
    "population": "33843", 
    "population_proper": "29774"
  }, 
  {
    "name": "Pascani", 
    "lat": "47.2494", 
    "lng": "26.7272", 
    "country": "Romania", 
    "iso2": "RO", 
    "admin_name": "Iasi", 
    "capital": "", 
    "population": "33745", 
    "population_proper": "30766"
  }, 
  {
    "name": "Dej", 
    "lat": "47.0872", 
    "lng": "23.8053", 
    "country": "Romania", 
    "iso2": "RO", 
    "admin_name": "Cluj", 
    "capital": "", 
    "population": "33497", 
    "population_proper": "31475"
  }, 
  {
    "name": "Reghin", 
    "lat": "46.7758", 
    "lng": "24.7083", 
    "country": "Romania", 
    "iso2": "RO", 
    "admin_name": "Mures", 
    "capital": "", 
    "population": "33281", 
    "population_proper": "29742"
  }, 
  {
    "name": "Campina", 
    "lat": "45.1300", 
    "lng": "25.7400", 
    "country": "Romania", 
    "iso2": "RO", 
    "admin_name": "Prahova", 
    "capital": "", 
    "population": "32935", 
    "population_proper": "28993"
  }, 
  {
    "name": "Pantelimon", 
    "lat": "44.4500", 
    "lng": "26.2000", 
    "country": "Romania", 
    "iso2": "RO", 
    "admin_name": "Ilfov", 
    "capital": "", 
    "population": "32873", 
    "population_proper": "32873"
  }, 
  {
    "name": "Mioveni", 
    "lat": "44.9569", 
    "lng": "24.9406", 
    "country": "Romania", 
    "iso2": "RO", 
    "admin_name": "Arges", 
    "capital": "", 
    "population": "31998", 
    "population_proper": "29317"
  }, 
  {
    "name": "Campulung", 
    "lat": "45.2678", 
    "lng": "25.0464", 
    "country": "Romania", 
    "iso2": "RO", 
    "admin_name": "Arges", 
    "capital": "", 
    "population": "31767", 
    "population_proper": "27574"
  }, 
  {
    "name": "Caracal", 
    "lat": "44.1125", 
    "lng": "24.3472", 
    "country": "Romania", 
    "iso2": "RO", 
    "admin_name": "Olt", 
    "capital": "", 
    "population": "30954", 
    "population_proper": "27403"
  }, 
  {
    "name": "Sacele", 
    "lat": "45.6200", 
    "lng": "25.7097", 
    "country": "Romania", 
    "iso2": "RO", 
    "admin_name": "Brasov", 
    "capital": "", 
    "population": "30920", 
    "population_proper": "30920"
  }, 
  {
    "name": "Fagaras", 
    "lat": "45.8447", 
    "lng": "24.9742", 
    "country": "Romania", 
    "iso2": "RO", 
    "admin_name": "Brasov", 
    "capital": "", 
    "population": "30714", 
    "population_proper": "26284"
  }, 
  {
    "name": "Fetesti", 
    "lat": "44.4150", 
    "lng": "27.8236", 
    "country": "Romania", 
    "iso2": "RO", 
    "admin_name": "Ialomita", 
    "capital": "", 
    "population": "30217", 
    "population_proper": "27462"
  }, 
  {
    "name": "Sighisoara", 
    "lat": "46.2169", 
    "lng": "24.7911", 
    "country": "Romania", 
    "iso2": "RO", 
    "admin_name": "Mures", 
    "capital": "", 
    "population": "28102", 
    "population_proper": "23927"
  }, 
  {
    "name": "Borsa", 
    "lat": "47.6553", 
    "lng": "24.6631", 
    "country": "Romania", 
    "iso2": "RO", 
    "admin_name": "Maramures", 
    "capital": "", 
    "population": "27711", 
    "population_proper": "27711"
  }, 
  {
    "name": "Rosiori de Vede", 
    "lat": "44.1114", 
    "lng": "24.9942", 
    "country": "Romania", 
    "iso2": "RO", 
    "admin_name": "Teleorman", 
    "capital": "", 
    "population": "27416", 
    "population_proper": "22294"
  }, 
  {
    "name": "Curtea de Arges", 
    "lat": "45.1392", 
    "lng": "24.6792", 
    "country": "Romania", 
    "iso2": "RO", 
    "admin_name": "Arges", 
    "capital": "", 
    "population": "27359", 
    "population_proper": "25977"
  }, 
  {
    "name": "Sebes", 
    "lat": "45.9600", 
    "lng": "23.5700", 
    "country": "Romania", 
    "iso2": "RO", 
    "admin_name": "Alba", 
    "capital": "", 
    "population": "27019", 
    "population_proper": "26490"
  }, 
  {
    "name": "Husi", 
    "lat": "46.6742", 
    "lng": "28.0597", 
    "country": "Romania", 
    "iso2": "RO", 
    "admin_name": "Vaslui", 
    "capital": "", 
    "population": "26266", 
    "population_proper": "25045"
  }, 
  {
    "name": "Falticeni", 
    "lat": "47.4597", 
    "lng": "26.3000", 
    "country": "Romania", 
    "iso2": "RO", 
    "admin_name": "Suceava", 
    "capital": "", 
    "population": "25723", 
    "population_proper": "23902"
  }, 
  {
    "name": "Oltenita", 
    "lat": "44.0867", 
    "lng": "26.6367", 
    "country": "Romania", 
    "iso2": "RO", 
    "admin_name": "Calarasi", 
    "capital": "", 
    "population": "24822", 
    "population_proper": "22624"
  }, 
  {
    "name": "Turnu Magurele", 
    "lat": "43.7517", 
    "lng": "24.8708", 
    "country": "Romania", 
    "iso2": "RO", 
    "admin_name": "Teleorman", 
    "capital": "", 
    "population": "24772", 
    "population_proper": "19597"
  }, 
  {
    "name": "Caransebes", 
    "lat": "45.4214", 
    "lng": "22.2219", 
    "country": "Romania", 
    "iso2": "RO", 
    "admin_name": "Caras-Severin", 
    "capital": "", 
    "population": "24689", 
    "population_proper": "21714"
  }, 
  {
    "name": "Dorohoi", 
    "lat": "47.9597", 
    "lng": "26.3997", 
    "country": "Romania", 
    "iso2": "RO", 
    "admin_name": "Botosani", 
    "capital": "", 
    "population": "24309", 
    "population_proper": "22893"
  }, 
  {
    "name": "Radauti", 
    "lat": "47.8425", 
    "lng": "25.9192", 
    "country": "Romania", 
    "iso2": "RO", 
    "admin_name": "Suceava", 
    "capital": "", 
    "population": "24292", 
    "population_proper": "24292"
  }, 
  {
    "name": "Vulcan", 
    "lat": "45.3811", 
    "lng": "23.2914", 
    "country": "Romania", 
    "iso2": "RO", 
    "admin_name": "Hunedoara", 
    "capital": "", 
    "population": "24160", 
    "population_proper": "19772"
  }, 
  {
    "name": "Zarnesti", 
    "lat": "45.5667", 
    "lng": "25.3333", 
    "country": "Romania", 
    "iso2": "RO", 
    "admin_name": "Brasov", 
    "capital": "", 
    "population": "23476", 
    "population_proper": "21624"
  }, 
  {
    "name": "Lupeni", 
    "lat": "45.3603", 
    "lng": "23.2383", 
    "country": "Romania", 
    "iso2": "RO", 
    "admin_name": "Hunedoara", 
    "capital": "", 
    "population": "23390", 
    "population_proper": "18699"
  }, 
  {
    "name": "Aiud", 
    "lat": "46.3122", 
    "lng": "23.7292", 
    "country": "Romania", 
    "iso2": "RO", 
    "admin_name": "Alba", 
    "capital": "", 
    "population": "22876", 
    "population_proper": "21307"
  }, 
  {
    "name": "Petrila", 
    "lat": "45.4500", 
    "lng": "23.4200", 
    "country": "Romania", 
    "iso2": "RO", 
    "admin_name": "Hunedoara", 
    "capital": "", 
    "population": "22692", 
    "population_proper": "19600"
  }, 
  {
    "name": "Cisnadie", 
    "lat": "45.7128", 
    "lng": "24.1508", 
    "country": "Romania", 
    "iso2": "RO", 
    "admin_name": "Sibiu", 
    "capital": "", 
    "population": "22277", 
    "population_proper": "22277"
  }, 
  {
    "name": "Campia Turzii", 
    "lat": "46.5486", 
    "lng": "23.8800", 
    "country": "Romania", 
    "iso2": "RO", 
    "admin_name": "Cluj", 
    "capital": "", 
    "population": "22223", 
    "population_proper": "20590"
  }, 
  {
    "name": "Buftea", 
    "lat": "44.5700", 
    "lng": "25.9500", 
    "country": "Romania", 
    "iso2": "RO", 
    "admin_name": "Ilfov", 
    "capital": "", 
    "population": "22178", 
    "population_proper": "20577"
  }, 
  {
    "name": "Tarnaveni", 
    "lat": "46.3297", 
    "lng": "24.2700", 
    "country": "Romania", 
    "iso2": "RO", 
    "admin_name": "Mures", 
    "capital": "", 
    "population": "22075", 
    "population_proper": "20604"
  }, 
  {
    "name": "Moinesti", 
    "lat": "46.4333", 
    "lng": "26.4833", 
    "country": "Romania", 
    "iso2": "RO", 
    "admin_name": "Bacau", 
    "capital": "", 
    "population": "21787", 
    "population_proper": "19728"
  }, 
  {
    "name": "Otopeni", 
    "lat": "44.5500", 
    "lng": "26.0700", 
    "country": "Romania", 
    "iso2": "RO", 
    "admin_name": "Ilfov", 
    "capital": "", 
    "population": "21750", 
    "population_proper": "21750"
  }, 
  {
    "name": "Codlea", 
    "lat": "45.6969", 
    "lng": "25.4439", 
    "country": "Romania", 
    "iso2": "RO", 
    "admin_name": "Brasov", 
    "capital": "", 
    "population": "21708", 
    "population_proper": "20534"
  }, 
  {
    "name": "Cugir", 
    "lat": "45.8436", 
    "lng": "23.3636", 
    "country": "Romania", 
    "iso2": "RO", 
    "admin_name": "Alba", 
    "capital": "", 
    "population": "21376", 
    "population_proper": "19473"
  }, 
  {
    "name": "Carei", 
    "lat": "47.6839", 
    "lng": "22.4669", 
    "country": "Romania", 
    "iso2": "RO", 
    "admin_name": "Satu Mare", 
    "capital": "", 
    "population": "21112", 
    "population_proper": "18957"
  }, 
  {
    "name": "Gherla", 
    "lat": "47.0200", 
    "lng": "23.9000", 
    "country": "Romania", 
    "iso2": "RO", 
    "admin_name": "Cluj", 
    "capital": "", 
    "population": "20982", 
    "population_proper": "19873"
  }, 
  {
    "name": "Scobinti", 
    "lat": "47.3833", 
    "lng": "26.9333", 
    "country": "Romania", 
    "iso2": "RO", 
    "admin_name": "Iasi", 
    "capital": "", 
    "population": "20700", 
    "population_proper": "1818"
  }, 
  {
    "name": "Blaj", 
    "lat": "46.1753", 
    "lng": "23.9144", 
    "country": "Romania", 
    "iso2": "RO", 
    "admin_name": "Alba", 
    "capital": "", 
    "population": "20630", 
    "population_proper": "17816"
  }, 
  {
    "name": "Floresti", 
    "lat": "46.7475", 
    "lng": "23.4908", 
    "country": "Romania", 
    "iso2": "RO", 
    "admin_name": "Cluj", 
    "capital": "", 
    "population": "20256", 
    "population_proper": "20256"
  }, 
  {
    "name": "Comanesti", 
    "lat": "46.4297", 
    "lng": "26.4500", 
    "country": "Romania", 
    "iso2": "RO", 
    "admin_name": "Bacau", 
    "capital": "", 
    "population": "19996", 
    "population_proper": "19996"
  }, 
  {
    "name": "Motru", 
    "lat": "44.8036", 
    "lng": "22.9708", 
    "country": "Romania", 
    "iso2": "RO", 
    "admin_name": "Gorj", 
    "capital": "", 
    "population": "19079", 
    "population_proper": "15950"
  }, 
  {
    "name": "Targu Neamt", 
    "lat": "47.2025", 
    "lng": "26.3586", 
    "country": "Romania", 
    "iso2": "RO", 
    "admin_name": "Neamt", 
    "capital": "", 
    "population": "18695", 
    "population_proper": "18015"
  }, 
  {
    "name": "Moreni", 
    "lat": "44.9803", 
    "lng": "25.6444", 
    "country": "Romania", 
    "iso2": "RO", 
    "admin_name": "Dambovita", 
    "capital": "", 
    "population": "18687", 
    "population_proper": "15472"
  }, 
  {
    "name": "Toflea", 
    "lat": "46.0637", 
    "lng": "27.3341", 
    "country": "Romania", 
    "iso2": "RO", 
    "admin_name": "Galati", 
    "capital": "", 
    "population": "18521", 
    "population_proper": "5801"
  }, 
  {
    "name": "Targu Secuiesc", 
    "lat": "45.9969", 
    "lng": "26.1406", 
    "country": "Romania", 
    "iso2": "RO", 
    "admin_name": "Covasna", 
    "capital": "", 
    "population": "18491", 
    "population_proper": "16243"
  }, 
  {
    "name": "Gheorgheni", 
    "lat": "46.7200", 
    "lng": "25.5900", 
    "country": "Romania", 
    "iso2": "RO", 
    "admin_name": "Harghita", 
    "capital": "", 
    "population": "18377", 
    "population_proper": "15884"
  }, 
  {
    "name": "Orastie", 
    "lat": "45.8500", 
    "lng": "23.2000", 
    "country": "Romania", 
    "iso2": "RO", 
    "admin_name": "Hunedoara", 
    "capital": "", 
    "population": "18227", 
    "population_proper": "16825"
  }, 
  {
    "name": "Bals", 
    "lat": "44.3500", 
    "lng": "24.0994", 
    "country": "Romania", 
    "iso2": "RO", 
    "admin_name": "Olt", 
    "capital": "", 
    "population": "18164", 
    "population_proper": "16114"
  }, 
  {
    "name": "Baicoi", 
    "lat": "45.0453", 
    "lng": "25.8658", 
    "country": "Romania", 
    "iso2": "RO", 
    "admin_name": "Prahova", 
    "capital": "", 
    "population": "17981", 
    "population_proper": "16722"
  }, 
  {
    "name": "Dragasani", 
    "lat": "44.6611", 
    "lng": "24.2606", 
    "country": "Romania", 
    "iso2": "RO", 
    "admin_name": "Valcea", 
    "capital": "", 
    "population": "17871", 
    "population_proper": "15617"
  }, 
  {
    "name": "Salonta", 
    "lat": "46.8000", 
    "lng": "21.6500", 
    "country": "Romania", 
    "iso2": "RO", 
    "admin_name": "Bihor", 
    "capital": "", 
    "population": "17735", 
    "population_proper": "15792"
  }, 
  {
    "name": "Bailesti", 
    "lat": "44.0308", 
    "lng": "23.3525", 
    "country": "Romania", 
    "iso2": "RO", 
    "admin_name": "Dolj", 
    "capital": "", 
    "population": "17437", 
    "population_proper": "15928"
  }, 
  {
    "name": "Calafat", 
    "lat": "43.9858", 
    "lng": "22.9575", 
    "country": "Romania", 
    "iso2": "RO", 
    "admin_name": "Dolj", 
    "capital": "", 
    "population": "17336", 
    "population_proper": "13807"
  }, 
  {
    "name": "Filiasi", 
    "lat": "44.4000", 
    "lng": "23.5200", 
    "country": "Romania", 
    "iso2": "RO", 
    "admin_name": "Dolj", 
    "capital": "", 
    "population": "16900", 
    "population_proper": "15031"
  }, 
  {
    "name": "Campulung Moldovenesc", 
    "lat": "47.5308", 
    "lng": "25.5514", 
    "country": "Romania", 
    "iso2": "RO", 
    "admin_name": "Suceava", 
    "capital": "", 
    "population": "16722", 
    "population_proper": "15642"
  }, 
  {
    "name": "Corabia", 
    "lat": "43.7736", 
    "lng": "24.5033", 
    "country": "Romania", 
    "iso2": "RO", 
    "admin_name": "Olt", 
    "capital": "", 
    "population": "16441", 
    "population_proper": "13527"
  }, 
  {
    "name": "Adjud", 
    "lat": "46.1000", 
    "lng": "27.1797", 
    "country": "Romania", 
    "iso2": "RO", 
    "admin_name": "Vrancea", 
    "capital": "", 
    "population": "16045", 
    "population_proper": "15178"
  }, 
  {
    "name": "Breaza", 
    "lat": "45.1872", 
    "lng": "25.6622", 
    "country": "Romania", 
    "iso2": "RO", 
    "admin_name": "Prahova", 
    "capital": "", 
    "population": "15928", 
    "population_proper": "14871"
  }, 
  {
    "name": "Rasnov", 
    "lat": "45.5933", 
    "lng": "25.4603", 
    "country": "Romania", 
    "iso2": "RO", 
    "admin_name": "Brasov", 
    "capital": "", 
    "population": "15920", 
    "population_proper": "15920"
  }, 
  {
    "name": "Bocsa", 
    "lat": "45.3747", 
    "lng": "21.7106", 
    "country": "Romania", 
    "iso2": "RO", 
    "admin_name": "Caras-Severin", 
    "capital": "", 
    "population": "15842", 
    "population_proper": "12949"
  }, 
  {
    "name": "Marghita", 
    "lat": "47.3500", 
    "lng": "22.3333", 
    "country": "Romania", 
    "iso2": "RO", 
    "admin_name": "Bihor", 
    "capital": "", 
    "population": "15770", 
    "population_proper": "13573"
  }, 
  {
    "name": "Baia-Sprie", 
    "lat": "47.6592", 
    "lng": "23.7042", 
    "country": "Romania", 
    "iso2": "RO", 
    "admin_name": "Maramures", 
    "capital": "", 
    "population": "15476", 
    "population_proper": "14329"
  }, 
  {
    "name": "Viseu de Sus", 
    "lat": "47.7092", 
    "lng": "24.4239", 
    "country": "Romania", 
    "iso2": "RO", 
    "admin_name": "Maramures", 
    "capital": "", 
    "population": "15349", 
    "population_proper": "15349"
  }, 
  {
    "name": "Ludus", 
    "lat": "46.4778", 
    "lng": "24.0961", 
    "country": "Romania", 
    "iso2": "RO", 
    "admin_name": "Mures", 
    "capital": "", 
    "population": "15328", 
    "population_proper": "14757"
  }, 
  {
    "name": "Urziceni", 
    "lat": "44.7181", 
    "lng": "26.6453", 
    "country": "Romania", 
    "iso2": "RO", 
    "admin_name": "Ialomita", 
    "capital": "", 
    "population": "15308", 
    "population_proper": "13380"
  }, 
  {
    "name": "Vicovu de Sus", 
    "lat": "47.9258", 
    "lng": "25.6800", 
    "country": "Romania", 
    "iso2": "RO", 
    "admin_name": "Suceava", 
    "capital": "", 
    "population": "15143", 
    "population_proper": "15143"
  }, 
  {
    "name": "Chitila", 
    "lat": "44.5083", 
    "lng": "25.9819", 
    "country": "Romania", 
    "iso2": "RO", 
    "admin_name": "Ilfov", 
    "capital": "", 
    "population": "14762", 
    "population_proper": "14762"
  }, 
  {
    "name": "Negresti-Oas", 
    "lat": "47.8694", 
    "lng": "23.4242", 
    "country": "Romania", 
    "iso2": "RO", 
    "admin_name": "Satu Mare", 
    "capital": "", 
    "population": "14616", 
    "population_proper": "14616"
  }, 
  {
    "name": "Buhusi", 
    "lat": "46.7150", 
    "lng": "26.7042", 
    "country": "Romania", 
    "iso2": "RO", 
    "admin_name": "Bacau", 
    "capital": "", 
    "population": "14562", 
    "population_proper": "14152"
  }, 
  {
    "name": "Brad", 
    "lat": "46.1294", 
    "lng": "22.7900", 
    "country": "Romania", 
    "iso2": "RO", 
    "admin_name": "Hunedoara", 
    "capital": "", 
    "population": "14495", 
    "population_proper": "12690"
  }, 
  {
    "name": "Vatra Dornei", 
    "lat": "47.3461", 
    "lng": "25.3594", 
    "country": "Romania", 
    "iso2": "RO", 
    "admin_name": "Suceava", 
    "capital": "", 
    "population": "14429", 
    "population_proper": "12578"
  }, 
  {
    "name": "Magurele", 
    "lat": "44.3494", 
    "lng": "26.0297", 
    "country": "Romania", 
    "iso2": "RO", 
    "admin_name": "Ilfov", 
    "capital": "", 
    "population": "14414", 
    "population_proper": "14414"
  }, 
  {
    "name": "Mizil", 
    "lat": "45.0000", 
    "lng": "26.4406", 
    "country": "Romania", 
    "iso2": "RO", 
    "admin_name": "Prahova", 
    "capital": "", 
    "population": "14312", 
    "population_proper": "12962"
  }, 
  {
    "name": "Pucioasa", 
    "lat": "45.0742", 
    "lng": "25.4342", 
    "country": "Romania", 
    "iso2": "RO", 
    "admin_name": "Dambovita", 
    "capital": "", 
    "population": "14254", 
    "population_proper": "12953"
  }, 
  {
    "name": "Zimnicea", 
    "lat": "43.6522", 
    "lng": "25.3681", 
    "country": "Romania", 
    "iso2": "RO", 
    "admin_name": "Teleorman", 
    "capital": "", 
    "population": "14058", 
    "population_proper": "12589"
  }, 
  {
    "name": "Ovidiu", 
    "lat": "44.2700", 
    "lng": "28.5600", 
    "country": "Romania", 
    "iso2": "RO", 
    "admin_name": "Constanta", 
    "capital": "", 
    "population": "13968", 
    "population_proper": "13968"
  }, 
  {
    "name": "Toplita", 
    "lat": "46.9236", 
    "lng": "25.3458", 
    "country": "Romania", 
    "iso2": "RO", 
    "admin_name": "Harghita", 
    "capital": "", 
    "population": "13929", 
    "population_proper": "12609"
  }, 
  {
    "name": "Gura Humorului", 
    "lat": "47.5539", 
    "lng": "25.8892", 
    "country": "Romania", 
    "iso2": "RO", 
    "admin_name": "Suceava", 
    "capital": "", 
    "population": "13667", 
    "population_proper": "13278"
  }, 
  {
    "name": "Jimbolia", 
    "lat": "45.7931", 
    "lng": "20.7375", 
    "country": "Romania", 
    "iso2": "RO", 
    "admin_name": "Timis", 
    "capital": "", 
    "population": "13597", 
    "population_proper": "10179"
  }, 
  {
    "name": "Gaesti", 
    "lat": "44.7194", 
    "lng": "25.3197", 
    "country": "Romania", 
    "iso2": "RO", 
    "admin_name": "Dambovita", 
    "capital": "", 
    "population": "13317", 
    "population_proper": "12583"
  }, 
  {
    "name": "Darmanesti", 
    "lat": "46.3700", 
    "lng": "26.4797", 
    "country": "Romania", 
    "iso2": "RO", 
    "admin_name": "Bacau", 
    "capital": "", 
    "population": "13069", 
    "population_proper": "13069"
  }, 
  {
    "name": "Ocna Mures", 
    "lat": "46.3900", 
    "lng": "23.8600", 
    "country": "Romania", 
    "iso2": "RO", 
    "admin_name": "Alba", 
    "capital": "", 
    "population": "13036", 
    "population_proper": "12480"
  }, 
  {
    "name": "Bolintin Vale", 
    "lat": "44.4472", 
    "lng": "25.7572", 
    "country": "Romania", 
    "iso2": "RO", 
    "admin_name": "Giurgiu", 
    "capital": "", 
    "population": "12929", 
    "population_proper": "12806"
  }, 
  {
    "name": "Avrig", 
    "lat": "45.7081", 
    "lng": "24.3747", 
    "country": "Romania", 
    "iso2": "RO", 
    "admin_name": "Sibiu", 
    "capital": "", 
    "population": "12815", 
    "population_proper": "12534"
  }, 
  {
    "name": "Pecica", 
    "lat": "46.1700", 
    "lng": "21.0700", 
    "country": "Romania", 
    "iso2": "RO", 
    "admin_name": "Arad", 
    "capital": "", 
    "population": "12762", 
    "population_proper": "11950"
  }, 
  {
    "name": "Simeria", 
    "lat": "45.8500", 
    "lng": "23.0100", 
    "country": "Romania", 
    "iso2": "RO", 
    "admin_name": "Hunedoara", 
    "capital": "", 
    "population": "12556", 
    "population_proper": "11268"
  }, 
  {
    "name": "Santana", 
    "lat": "46.3500", 
    "lng": "21.5000", 
    "country": "Romania", 
    "iso2": "RO", 
    "admin_name": "Arad", 
    "capital": "", 
    "population": "12460", 
    "population_proper": "12460"
  }, 
  {
    "name": "Valu lui Traian", 
    "lat": "44.1650", 
    "lng": "28.4550", 
    "country": "Romania", 
    "iso2": "RO", 
    "admin_name": "Constanta", 
    "capital": "", 
    "population": "12376", 
    "population_proper": "12376"
  }, 
  {
    "name": "Moldova Noua", 
    "lat": "44.7178", 
    "lng": "21.6639", 
    "country": "Romania", 
    "iso2": "RO", 
    "admin_name": "Caras-Severin", 
    "capital": "", 
    "population": "12350", 
    "population_proper": "9278"
  }, 
  {
    "name": "Cumpana", 
    "lat": "44.1128", 
    "lng": "28.5558", 
    "country": "Romania", 
    "iso2": "RO", 
    "admin_name": "Constanta", 
    "capital": "", 
    "population": "12333", 
    "population_proper": "12333"
  }, 
  {
    "name": "Sannicolau Mare", 
    "lat": "46.0636", 
    "lng": "20.6125", 
    "country": "Romania", 
    "iso2": "RO", 
    "admin_name": "Timis", 
    "capital": "", 
    "population": "12312", 
    "population_proper": "10627"
  }, 
  {
    "name": "Jilava", 
    "lat": "44.3328", 
    "lng": "26.0781", 
    "country": "Romania", 
    "iso2": "RO", 
    "admin_name": "Ilfov", 
    "capital": "", 
    "population": "12223", 
    "population_proper": "12223"
  }, 
  {
    "name": "Dabuleni", 
    "lat": "43.8011", 
    "lng": "24.0919", 
    "country": "Romania", 
    "iso2": "RO", 
    "admin_name": "Dolj", 
    "capital": "", 
    "population": "12175", 
    "population_proper": "10333"
  }, 
  {
    "name": "Valenii de Munte", 
    "lat": "45.1856", 
    "lng": "26.0397", 
    "country": "Romania", 
    "iso2": "RO", 
    "admin_name": "Prahova", 
    "capital": "", 
    "population": "12044", 
    "population_proper": "12044"
  }, 
  {
    "name": "Comarnic", 
    "lat": "45.2511", 
    "lng": "25.6353", 
    "country": "Romania", 
    "iso2": "RO", 
    "admin_name": "Prahova", 
    "capital": "", 
    "population": "11970", 
    "population_proper": "11106"
  }, 
  {
    "name": "Darabani", 
    "lat": "48.1864", 
    "lng": "26.5892", 
    "country": "Romania", 
    "iso2": "RO", 
    "admin_name": "Botosani", 
    "capital": "", 
    "population": "11948", 
    "population_proper": "11948"
  }, 
  {
    "name": "Rovinari", 
    "lat": "44.9125", 
    "lng": "23.1622", 
    "country": "Romania", 
    "iso2": "RO", 
    "admin_name": "Gorj", 
    "capital": "", 
    "population": "11816", 
    "population_proper": "10246"
  }, 
  {
    "name": "Scornicesti", 
    "lat": "44.5700", 
    "lng": "24.5500", 
    "country": "Romania", 
    "iso2": "RO", 
    "admin_name": "Olt", 
    "capital": "", 
    "population": "11766", 
    "population_proper": "10795"
  }, 
  {
    "name": "Targu Lapus", 
    "lat": "47.4525", 
    "lng": "23.8631", 
    "country": "Romania", 
    "iso2": "RO", 
    "admin_name": "Maramures", 
    "capital": "", 
    "population": "11744", 
    "population_proper": "11163"
  }, 
  {
    "name": "Matca", 
    "lat": "45.8500", 
    "lng": "27.5333", 
    "country": "Romania", 
    "iso2": "RO", 
    "admin_name": "Galati", 
    "capital": "", 
    "population": "11605", 
    "population_proper": "11605"
  }, 
  {
    "name": "Sacueni", 
    "lat": "47.3525", 
    "lng": "22.0914", 
    "country": "Romania", 
    "iso2": "RO", 
    "admin_name": "Bihor", 
    "capital": "", 
    "population": "11526", 
    "population_proper": "10720"
  }, 
  {
    "name": "Videle", 
    "lat": "44.2833", 
    "lng": "25.5333", 
    "country": "Romania", 
    "iso2": "RO", 
    "admin_name": "Teleorman", 
    "capital": "", 
    "population": "11508", 
    "population_proper": "10107"
  }, 
  {
    "name": "Oravita", 
    "lat": "45.0403", 
    "lng": "21.6853", 
    "country": "Romania", 
    "iso2": "RO", 
    "admin_name": "Caras-Severin", 
    "capital": "", 
    "population": "11382", 
    "population_proper": "9346"
  }, 
  {
    "name": "Marasesti", 
    "lat": "45.8800", 
    "lng": "27.2300", 
    "country": "Romania", 
    "iso2": "RO", 
    "admin_name": "Vrancea", 
    "capital": "", 
    "population": "11314", 
    "population_proper": "11314"
  }, 
  {
    "name": "Targu Ocna", 
    "lat": "46.2800", 
    "lng": "26.6200", 
    "country": "Romania", 
    "iso2": "RO", 
    "admin_name": "Bacau", 
    "capital": "", 
    "population": "11300", 
    "population_proper": "10410"
  }, 
  {
    "name": "Calan", 
    "lat": "45.7361", 
    "lng": "23.0086", 
    "country": "Romania", 
    "iso2": "RO", 
    "admin_name": "Hunedoara", 
    "capital": "", 
    "population": "11279", 
    "population_proper": "10055"
  }, 
  {
    "name": "Beclean", 
    "lat": "47.1797", 
    "lng": "24.1797", 
    "country": "Romania", 
    "iso2": "RO", 
    "admin_name": "Bistrita-Nasaud", 
    "capital": "", 
    "population": "11260", 
    "population_proper": "11260"
  }, 
  {
    "name": "Boldesti-Scaeni", 
    "lat": "45.0300", 
    "lng": "26.0300", 
    "country": "Romania", 
    "iso2": "RO", 
    "admin_name": "Prahova", 
    "capital": "", 
    "population": "11137", 
    "population_proper": "10298"
  }, 
  {
    "name": "Dolhasca", 
    "lat": "47.4303", 
    "lng": "26.6094", 
    "country": "Romania", 
    "iso2": "RO", 
    "admin_name": "Suceava", 
    "capital": "", 
    "population": "11007", 
    "population_proper": "11007"
  }, 
  {
    "name": "Sangeorz-Bai", 
    "lat": "47.3700", 
    "lng": "24.6800", 
    "country": "Romania", 
    "iso2": "RO", 
    "admin_name": "Bistrita-Nasaud", 
    "capital": "", 
    "population": "10931", 
    "population_proper": "10931"
  }, 
  {
    "name": "Harlau", 
    "lat": "47.4278", 
    "lng": "26.9114", 
    "country": "Romania", 
    "iso2": "RO", 
    "admin_name": "Iasi", 
    "capital": "", 
    "population": "10905", 
    "population_proper": "10349"
  }, 
  {
    "name": "Draganesti-Olt", 
    "lat": "44.1697", 
    "lng": "24.5300", 
    "country": "Romania", 
    "iso2": "RO", 
    "admin_name": "Olt", 
    "capital": "", 
    "population": "10894", 
    "population_proper": "9721"
  }, 
  {
    "name": "Cristuru Secuiesc", 
    "lat": "46.2917", 
    "lng": "25.0353", 
    "country": "Romania", 
    "iso2": "RO", 
    "admin_name": "Harghita", 
    "capital": "", 
    "population": "10796", 
    "population_proper": "8797"
  }, 
  {
    "name": "Poiana Mare", 
    "lat": "43.9333", 
    "lng": "23.0833", 
    "country": "Romania", 
    "iso2": "RO", 
    "admin_name": "Dolj", 
    "capital": "", 
    "population": "10740", 
    "population_proper": "9047"
  }, 
  {
    "name": "Beius", 
    "lat": "46.6500", 
    "lng": "22.3500", 
    "country": "Romania", 
    "iso2": "RO", 
    "admin_name": "Bihor", 
    "capital": "", 
    "population": "10667", 
    "population_proper": "9745"
  }, 
  {
    "name": "Flamanzi", 
    "lat": "47.5500", 
    "lng": "26.8667", 
    "country": "Romania", 
    "iso2": "RO", 
    "admin_name": "Botosani", 
    "capital": "", 
    "population": "10561", 
    "population_proper": "10561"
  }, 
  {
    "name": "Urlati", 
    "lat": "44.9911", 
    "lng": "26.2306", 
    "country": "Romania", 
    "iso2": "RO", 
    "admin_name": "Prahova", 
    "capital": "", 
    "population": "10541", 
    "population_proper": "10131"
  }, 
  {
    "name": "Otelu Rosu", 
    "lat": "45.5186", 
    "lng": "22.3528", 
    "country": "Romania", 
    "iso2": "RO", 
    "admin_name": "Caras-Severin", 
    "capital": "", 
    "population": "10510", 
    "population_proper": "8497"
  }, 
  {
    "name": "Strehaia", 
    "lat": "44.6222", 
    "lng": "23.1972", 
    "country": "Romania", 
    "iso2": "RO", 
    "admin_name": "Mehedinti", 
    "capital": "", 
    "population": "10506", 
    "population_proper": "9059"
  }, 
  {
    "name": "Targu Frumos", 
    "lat": "47.2097", 
    "lng": "27.0131", 
    "country": "Romania", 
    "iso2": "RO", 
    "admin_name": "Iasi", 
    "capital": "", 
    "population": "10475", 
    "population_proper": "9597"
  }, 
  {
    "name": "Orsova", 
    "lat": "44.7253", 
    "lng": "22.3961", 
    "country": "Romania", 
    "iso2": "RO", 
    "admin_name": "Mehedinti", 
    "capital": "", 
    "population": "10441", 
    "population_proper": "8506"
  }, 
  {
    "name": "Sinaia", 
    "lat": "45.3500", 
    "lng": "25.5514", 
    "country": "Romania", 
    "iso2": "RO", 
    "admin_name": "Prahova", 
    "capital": "", 
    "population": "10410", 
    "population_proper": "9071"
  }, 
  {
    "name": "Jibou", 
    "lat": "47.2667", 
    "lng": "23.2500", 
    "country": "Romania", 
    "iso2": "RO", 
    "admin_name": "Salaj", 
    "capital": "", 
    "population": "10407", 
    "population_proper": "9677"
  }, 
  {
    "name": "Sovata", 
    "lat": "46.5961", 
    "lng": "25.0744", 
    "country": "Romania", 
    "iso2": "RO", 
    "admin_name": "Mures", 
    "capital": "", 
    "population": "10385", 
    "population_proper": "9703"
  }, 
  {
    "name": "Costesti", 
    "lat": "44.6697", 
    "lng": "24.8800", 
    "country": "Romania", 
    "iso2": "RO", 
    "admin_name": "Arges", 
    "capital": "", 
    "population": "10375", 
    "population_proper": "9460"
  }, 
  {
    "name": "Ianca", 
    "lat": "45.1350", 
    "lng": "27.4747", 
    "country": "Romania", 
    "iso2": "RO", 
    "admin_name": "Braila", 
    "capital": "", 
    "population": "10343", 
    "population_proper": "8969"
  }, 
  {
    "name": "Lipova", 
    "lat": "46.0917", 
    "lng": "21.6917", 
    "country": "Romania", 
    "iso2": "RO", 
    "admin_name": "Arad", 
    "capital": "", 
    "population": "10313", 
    "population_proper": "10040"
  }, 
  {
    "name": "Topoloveni", 
    "lat": "44.8069", 
    "lng": "25.0839", 
    "country": "Romania", 
    "iso2": "RO", 
    "admin_name": "Arges", 
    "capital": "", 
    "population": "10219", 
    "population_proper": "9373"
  }, 
  {
    "name": "Murfatlar", 
    "lat": "44.1736", 
    "lng": "28.4083", 
    "country": "Romania", 
    "iso2": "RO", 
    "admin_name": "Constanta", 
    "capital": "", 
    "population": "10216", 
    "population_proper": "9173"
  }, 
  {
    "name": "Nasaud", 
    "lat": "47.2833", 
    "lng": "24.4067", 
    "country": "Romania", 
    "iso2": "RO", 
    "admin_name": "Bistrita-Nasaud", 
    "capital": "", 
    "population": "10215", 
    "population_proper": "10215"
  }, 
  {
    "name": "Nehoiu", 
    "lat": "45.3531", 
    "lng": "26.3050", 
    "country": "Romania", 
    "iso2": "RO", 
    "admin_name": "Buzau", 
    "capital": "", 
    "population": "10211", 
    "population_proper": "9464"
  }, 
  {
    "name": "Pechea", 
    "lat": "45.6333", 
    "lng": "27.8000", 
    "country": "Romania", 
    "iso2": "RO", 
    "admin_name": "Galati", 
    "capital": "", 
    "population": "10126", 
    "population_proper": "10126"
  }, 
  {
    "name": "Covasna", 
    "lat": "45.8492", 
    "lng": "26.1853", 
    "country": "Romania", 
    "iso2": "RO", 
    "admin_name": "Covasna", 
    "capital": "", 
    "population": "10114", 
    "population_proper": "9208"
  }, 
  {
    "name": "Poienile de sub Munte", 
    "lat": "47.8167", 
    "lng": "24.4333", 
    "country": "Romania", 
    "iso2": "RO", 
    "admin_name": "Maramures", 
    "capital": "", 
    "population": "10073", 
    "population_proper": "10073"
  }, 
  {
    "name": "Alesd", 
    "lat": "47.0572", 
    "lng": "22.3969", 
    "country": "Romania", 
    "iso2": "RO", 
    "admin_name": "Bihor", 
    "capital": "", 
    "population": "10066", 
    "population_proper": "9662"
  }, 
  {
    "name": "Valea lui Mihai", 
    "lat": "47.5200", 
    "lng": "22.1300", 
    "country": "Romania", 
    "iso2": "RO", 
    "admin_name": "Bihor", 
    "capital": "", 
    "population": "9902", 
    "population_proper": "8969"
  }, 
  {
    "name": "Hateg", 
    "lat": "45.6075", 
    "lng": "22.9500", 
    "country": "Romania", 
    "iso2": "RO", 
    "admin_name": "Hunedoara", 
    "capital": "", 
    "population": "9685", 
    "population_proper": "8793"
  }, 
  {
    "name": "Titu", 
    "lat": "44.6622", 
    "lng": "25.5736", 
    "country": "Romania", 
    "iso2": "RO", 
    "admin_name": "Dambovita", 
    "capital": "", 
    "population": "9658", 
    "population_proper": "9291"
  }, 
  {
    "name": "Liteni", 
    "lat": "47.5200", 
    "lng": "26.5319", 
    "country": "Romania", 
    "iso2": "RO", 
    "admin_name": "Suceava", 
    "capital": "", 
    "population": "9596", 
    "population_proper": "8878"
  }, 
  {
    "name": "Podu Iloaiei", 
    "lat": "47.2167", 
    "lng": "27.2667", 
    "country": "Romania", 
    "iso2": "RO", 
    "admin_name": "Iasi", 
    "capital": "", 
    "population": "9573", 
    "population_proper": "8992"
  }, 
  {
    "name": "Salcea", 
    "lat": "47.6500", 
    "lng": "26.3700", 
    "country": "Romania", 
    "iso2": "RO", 
    "admin_name": "Suceava", 
    "capital": "", 
    "population": "9513", 
    "population_proper": "9513"
  }, 
  {
    "name": "Odobesti", 
    "lat": "45.7667", 
    "lng": "27.0667", 
    "country": "Romania", 
    "iso2": "RO", 
    "admin_name": "Vrancea", 
    "capital": "", 
    "population": "9423", 
    "population_proper": "9423"
  }, 
  {
    "name": "Huedin", 
    "lat": "46.8700", 
    "lng": "23.0300", 
    "country": "Romania", 
    "iso2": "RO", 
    "admin_name": "Cluj", 
    "capital": "", 
    "population": "9346", 
    "population_proper": "8069"
  }, 
  {
    "name": "Ineu", 
    "lat": "46.4258", 
    "lng": "21.8369", 
    "country": "Romania", 
    "iso2": "RO", 
    "admin_name": "Arad", 
    "capital": "", 
    "population": "9260", 
    "population_proper": "8807"
  }, 
  {
    "name": "Babadag", 
    "lat": "44.8981", 
    "lng": "28.7419", 
    "country": "Romania", 
    "iso2": "RO", 
    "admin_name": "Tulcea", 
    "capital": "", 
    "population": "9213", 
    "population_proper": "9213"
  }, 
  {
    "name": "Cajvana", 
    "lat": "47.7044", 
    "lng": "25.9694", 
    "country": "Romania", 
    "iso2": "RO", 
    "admin_name": "Suceava", 
    "capital": "", 
    "population": "9139", 
    "population_proper": "9139"
  }, 
  {
    "name": "Seini", 
    "lat": "47.7478", 
    "lng": "23.2853", 
    "country": "Romania", 
    "iso2": "RO", 
    "admin_name": "Maramures", 
    "capital": "", 
    "population": "8987", 
    "population_proper": "8198"
  }, 
  {
    "name": "Bumbesti-Jiu", 
    "lat": "45.1786", 
    "lng": "23.3814", 
    "country": "Romania", 
    "iso2": "RO", 
    "admin_name": "Gorj", 
    "capital": "", 
    "population": "8932", 
    "population_proper": "7684"
  }, 
  {
    "name": "Busteni", 
    "lat": "45.4117", 
    "lng": "25.5372", 
    "country": "Romania", 
    "iso2": "RO", 
    "admin_name": "Prahova", 
    "capital": "", 
    "population": "8894", 
    "population_proper": "8368"
  }, 
  {
    "name": "Sangeorgiu de Mures", 
    "lat": "46.5500", 
    "lng": "24.4667", 
    "country": "Romania", 
    "iso2": "RO", 
    "admin_name": "Mures", 
    "capital": "", 
    "population": "8800", 
    "population_proper": "8800"
  }, 
  {
    "name": "Agnita", 
    "lat": "45.9731", 
    "lng": "24.6172", 
    "country": "Romania", 
    "iso2": "RO", 
    "admin_name": "Sibiu", 
    "capital": "", 
    "population": "8732", 
    "population_proper": "7564"
  }, 
  {
    "name": "Sabaoani", 
    "lat": "47.0167", 
    "lng": "26.8500", 
    "country": "Romania", 
    "iso2": "RO", 
    "admin_name": "Neamt", 
    "capital": "", 
    "population": "8722", 
    "population_proper": "8722"
  }, 
  {
    "name": "Iernut", 
    "lat": "46.4536", 
    "lng": "24.2333", 
    "country": "Romania", 
    "iso2": "RO", 
    "admin_name": "Mures", 
    "capital": "", 
    "population": "8705", 
    "population_proper": "8473"
  }, 
  {
    "name": "Baraolt", 
    "lat": "46.0750", 
    "lng": "25.6000", 
    "country": "Romania", 
    "iso2": "RO", 
    "admin_name": "Covasna", 
    "capital": "", 
    "population": "8672", 
    "population_proper": "7730"
  }, 
  {
    "name": "Tasnad", 
    "lat": "47.4772", 
    "lng": "22.5839", 
    "country": "Romania", 
    "iso2": "RO", 
    "admin_name": "Satu Mare", 
    "capital": "", 
    "population": "8631", 
    "population_proper": "8058"
  }, 
  {
    "name": "Bicaz", 
    "lat": "46.9108", 
    "lng": "26.0911", 
    "country": "Romania", 
    "iso2": "RO", 
    "admin_name": "Neamt", 
    "capital": "", 
    "population": "8626", 
    "population_proper": "6106"
  }, 
  {
    "name": "Roznov", 
    "lat": "46.8356", 
    "lng": "26.5117", 
    "country": "Romania", 
    "iso2": "RO", 
    "admin_name": "Neamt", 
    "capital": "", 
    "population": "8593", 
    "population_proper": "8133"
  }, 
  {
    "name": "Tautii Magherus", 
    "lat": "47.6678", 
    "lng": "23.4722", 
    "country": "Romania", 
    "iso2": "RO", 
    "admin_name": "Maramures", 
    "capital": "", 
    "population": "8463", 
    "population_proper": "8463"
  }, 
  {
    "name": "Babeni", 
    "lat": "44.9750", 
    "lng": "24.2311", 
    "country": "Romania", 
    "iso2": "RO", 
    "admin_name": "Valcea", 
    "capital": "", 
    "population": "8451", 
    "population_proper": "7570"
  }, 
  {
    "name": "Negresti", 
    "lat": "46.8403", 
    "lng": "27.4417", 
    "country": "Romania", 
    "iso2": "RO", 
    "admin_name": "Vaslui", 
    "capital": "", 
    "population": "8380", 
    "population_proper": "7530"
  }, 
  {
    "name": "Recas", 
    "lat": "45.8292", 
    "lng": "21.5292", 
    "country": "Romania", 
    "iso2": "RO", 
    "admin_name": "Timis", 
    "capital": "", 
    "population": "8347", 
    "population_proper": "8347"
  }, 
  {
    "name": "Intorsura Buzaului", 
    "lat": "45.6728", 
    "lng": "26.0342", 
    "country": "Romania", 
    "iso2": "RO", 
    "admin_name": "Covasna", 
    "capital": "", 
    "population": "8332", 
    "population_proper": "8332"
  }, 
  {
    "name": "Macin", 
    "lat": "45.2456", 
    "lng": "28.1231", 
    "country": "Romania", 
    "iso2": "RO", 
    "admin_name": "Tulcea", 
    "capital": "", 
    "population": "8245", 
    "population_proper": "7248"
  }, 
  {
    "name": "Tomesti", 
    "lat": "47.1333", 
    "lng": "27.7000", 
    "country": "Romania", 
    "iso2": "RO", 
    "admin_name": "Iasi", 
    "capital": "", 
    "population": "8126", 
    "population_proper": "8126"
  }, 
  {
    "name": "Techirghiol", 
    "lat": "44.0575", 
    "lng": "28.5958", 
    "country": "Romania", 
    "iso2": "RO", 
    "admin_name": "Constanta", 
    "capital": "", 
    "population": "8061", 
    "population_proper": "8061"
  }, 
  {
    "name": "Targu Carbunesti", 
    "lat": "44.9583", 
    "lng": "23.5064", 
    "country": "Romania", 
    "iso2": "RO", 
    "admin_name": "Gorj", 
    "capital": "", 
    "population": "8034", 
    "population_proper": "7616"
  }, 
  {
    "name": "Rosu", 
    "lat": "44.4509", 
    "lng": "26.0083", 
    "country": "Romania", 
    "iso2": "RO", 
    "admin_name": "Bucuresti", 
    "capital": "", 
    "population": "8020", 
    "population_proper": "8020"
  }, 
  {
    "name": "Chisineu Cris", 
    "lat": "46.5225", 
    "lng": "21.5158", 
    "country": "Romania", 
    "iso2": "RO", 
    "admin_name": "Arad", 
    "capital": "", 
    "population": "7987", 
    "population_proper": "7212"
  }, 
  {
    "name": "Borcea", 
    "lat": "44.3333", 
    "lng": "27.7569", 
    "country": "Romania", 
    "iso2": "RO", 
    "admin_name": "Calarasi", 
    "capital": "", 
    "population": "7986", 
    "population_proper": "7986"
  }, 
  {
    "name": "Siret", 
    "lat": "47.9531", 
    "lng": "26.0725", 
    "country": "Romania", 
    "iso2": "RO", 
    "admin_name": "Suceava", 
    "capital": "", 
    "population": "7976", 
    "population_proper": "6708"
  }, 
  {
    "name": "Mihailesti", 
    "lat": "44.3239", 
    "lng": "25.9069", 
    "country": "Romania", 
    "iso2": "RO", 
    "admin_name": "Giurgiu", 
    "capital": "", 
    "population": "7923", 
    "population_proper": "7760"
  }, 
  {
    "name": "Domnesti", 
    "lat": "44.4000", 
    "lng": "25.9167", 
    "country": "Romania", 
    "iso2": "RO", 
    "admin_name": "Ilfov", 
    "capital": "", 
    "population": "7910", 
    "population_proper": "7910"
  }, 
  {
    "name": "Prim Decembrie", 
    "lat": "44.2833", 
    "lng": "26.0667", 
    "country": "Romania", 
    "iso2": "RO", 
    "admin_name": "Ilfov", 
    "capital": "", 
    "population": "7817", 
    "population_proper": "7817"
  }, 
  {
    "name": "Budesti", 
    "lat": "44.2300", 
    "lng": "26.4500", 
    "country": "Romania", 
    "iso2": "RO", 
    "admin_name": "Calarasi", 
    "capital": "", 
    "population": "7725", 
    "population_proper": "7126"
  }, 
  {
    "name": "Vlahita", 
    "lat": "46.3500", 
    "lng": "25.5300", 
    "country": "Romania", 
    "iso2": "RO", 
    "admin_name": "Harghita", 
    "capital": "", 
    "population": "7649", 
    "population_proper": "6468"
  }, 
  {
    "name": "Campeni", 
    "lat": "46.3625", 
    "lng": "23.0456", 
    "country": "Romania", 
    "iso2": "RO", 
    "admin_name": "Alba", 
    "capital": "", 
    "population": "7629", 
    "population_proper": "6569"
  }, 
  {
    "name": "Mogosoaia", 
    "lat": "44.5333", 
    "lng": "26.0000", 
    "country": "Romania", 
    "iso2": "RO", 
    "admin_name": "Ilfov", 
    "capital": "", 
    "population": "7625", 
    "population_proper": "7625"
  }, 
  {
    "name": "Calimanesti", 
    "lat": "45.2392", 
    "lng": "24.3433", 
    "country": "Romania", 
    "iso2": "RO", 
    "admin_name": "Valcea", 
    "capital": "", 
    "population": "7622", 
    "population_proper": "7348"
  }, 
  {
    "name": "Fieni", 
    "lat": "45.1222", 
    "lng": "25.4183", 
    "country": "Romania", 
    "iso2": "RO", 
    "admin_name": "Dambovita", 
    "capital": "", 
    "population": "7587", 
    "population_proper": "6378"
  }, 
  {
    "name": "Modelu", 
    "lat": "44.2000", 
    "lng": "27.3833", 
    "country": "Romania", 
    "iso2": "RO", 
    "admin_name": "Calarasi", 
    "capital": "", 
    "population": "7564", 
    "population_proper": "7564"
  }, 
  {
    "name": "Dumbravita", 
    "lat": "45.8042", 
    "lng": "21.2414", 
    "country": "Romania", 
    "iso2": "RO", 
    "admin_name": "Timis", 
    "capital": "", 
    "population": "7522", 
    "population_proper": "7522"
  }, 
  {
    "name": "Anina", 
    "lat": "45.0917", 
    "lng": "21.8533", 
    "country": "Romania", 
    "iso2": "RO", 
    "admin_name": "Caras-Severin", 
    "capital": "", 
    "population": "7485", 
    "population_proper": "5521"
  }, 
  {
    "name": "Chirnogi", 
    "lat": "44.1167", 
    "lng": "26.5833", 
    "country": "Romania", 
    "iso2": "RO", 
    "admin_name": "Calarasi", 
    "capital": "", 
    "population": "7455", 
    "population_proper": "7455"
  }, 
  {
    "name": "Curtici", 
    "lat": "46.3419", 
    "lng": "21.3061", 
    "country": "Romania", 
    "iso2": "RO", 
    "admin_name": "Arad", 
    "capital": "", 
    "population": "7453", 
    "population_proper": "7279"
  }, 
  {
    "name": "Nadlac", 
    "lat": "46.1667", 
    "lng": "20.7506", 
    "country": "Romania", 
    "iso2": "RO", 
    "admin_name": "Arad", 
    "capital": "", 
    "population": "7398", 
    "population_proper": "6713"
  }, 
  {
    "name": "Dumbraveni", 
    "lat": "46.2275", 
    "lng": "24.5758", 
    "country": "Romania", 
    "iso2": "RO", 
    "admin_name": "Sibiu", 
    "capital": "", 
    "population": "7388", 
    "population_proper": "6238"
  }, 
  {
    "name": "Segarcea", 
    "lat": "44.0944", 
    "lng": "23.7458", 
    "country": "Romania", 
    "iso2": "RO", 
    "admin_name": "Dolj", 
    "capital": "", 
    "population": "7356", 
    "population_proper": "7356"
  }, 
  {
    "name": "Amara", 
    "lat": "44.6200", 
    "lng": "27.3200", 
    "country": "Romania", 
    "iso2": "RO", 
    "admin_name": "Ialomita", 
    "capital": "", 
    "population": "7345", 
    "population_proper": "6805"
  }, 
  {
    "name": "Branesti", 
    "lat": "44.4500", 
    "lng": "26.3333", 
    "country": "Romania", 
    "iso2": "RO", 
    "admin_name": "Ilfov", 
    "capital": "", 
    "population": "7305", 
    "population_proper": "7305"
  }, 
  {
    "name": "Patarlagele", 
    "lat": "45.3189", 
    "lng": "26.3597", 
    "country": "Romania", 
    "iso2": "RO", 
    "admin_name": "Buzau", 
    "capital": "", 
    "population": "7304", 
    "population_proper": "6276"
  }, 
  {
    "name": "Pogoanele", 
    "lat": "44.9167", 
    "lng": "27.0000", 
    "country": "Romania", 
    "iso2": "RO", 
    "admin_name": "Buzau", 
    "capital": "", 
    "population": "7275", 
    "population_proper": "6384"
  }, 
  {
    "name": "Ulmeni", 
    "lat": "47.4656", 
    "lng": "23.3003", 
    "country": "Romania", 
    "iso2": "RO", 
    "admin_name": "Maramures", 
    "capital": "", 
    "population": "7270", 
    "population_proper": "7110"
  }, 
  {
    "name": "Turceni", 
    "lat": "44.6667", 
    "lng": "23.3833", 
    "country": "Romania", 
    "iso2": "RO", 
    "admin_name": "Gorj", 
    "capital": "", 
    "population": "7269", 
    "population_proper": "6891"
  }, 
  {
    "name": "Cehu Silvaniei", 
    "lat": "47.4181", 
    "lng": "23.2867", 
    "country": "Romania", 
    "iso2": "RO", 
    "admin_name": "Salaj", 
    "capital": "", 
    "population": "7214", 
    "population_proper": "6369"
  }, 
  {
    "name": "Ghimbav", 
    "lat": "45.6628", 
    "lng": "25.5061", 
    "country": "Romania", 
    "iso2": "RO", 
    "admin_name": "Brasov", 
    "capital": "", 
    "population": "7208", 
    "population_proper": "7208"
  }, 
  {
    "name": "Murgeni", 
    "lat": "46.2000", 
    "lng": "28.0167", 
    "country": "Romania", 
    "iso2": "RO", 
    "admin_name": "Vaslui", 
    "capital": "", 
    "population": "7119", 
    "population_proper": "6853"
  }, 
  {
    "name": "Buzias", 
    "lat": "45.6306", 
    "lng": "21.5883", 
    "country": "Romania", 
    "iso2": "RO", 
    "admin_name": "Timis", 
    "capital": "", 
    "population": "7023", 
    "population_proper": "6834"
  }, 
  {
    "name": "Ungheni", 
    "lat": "46.4858", 
    "lng": "24.4608", 
    "country": "Romania", 
    "iso2": "RO", 
    "admin_name": "Mures", 
    "capital": "", 
    "population": "7007", 
    "population_proper": "7007"
  }, 
  {
    "name": "Saveni", 
    "lat": "47.9533", 
    "lng": "26.8589", 
    "country": "Romania", 
    "iso2": "RO", 
    "admin_name": "Botosani", 
    "capital": "", 
    "population": "6999", 
    "population_proper": "6447"
  }, 
  {
    "name": "Pancota", 
    "lat": "46.3225", 
    "lng": "21.6869", 
    "country": "Romania", 
    "iso2": "RO", 
    "admin_name": "Arad", 
    "capital": "", 
    "population": "6946", 
    "population_proper": "6787"
  }, 
  {
    "name": "Sarmasu", 
    "lat": "46.7536", 
    "lng": "24.1667", 
    "country": "Romania", 
    "iso2": "RO", 
    "admin_name": "Mures", 
    "capital": "", 
    "population": "6942", 
    "population_proper": "6186"
  }, 
  {
    "name": "Racari", 
    "lat": "44.6333", 
    "lng": "25.7333", 
    "country": "Romania", 
    "iso2": "RO", 
    "admin_name": "Dambovita", 
    "capital": "", 
    "population": "6930", 
    "population_proper": "6306"
  }, 
  {
    "name": "Panciu", 
    "lat": "45.9100", 
    "lng": "27.0900", 
    "country": "Romania", 
    "iso2": "RO", 
    "admin_name": "Vrancea", 
    "capital": "", 
    "population": "6921", 
    "population_proper": "6921"
  }, 
  {
    "name": "Talmaciu", 
    "lat": "45.6667", 
    "lng": "24.2611", 
    "country": "Romania", 
    "iso2": "RO", 
    "admin_name": "Sibiu", 
    "capital": "", 
    "population": "6905", 
    "population_proper": "6711"
  }, 
  {
    "name": "Fundulea", 
    "lat": "44.4528", 
    "lng": "26.5153", 
    "country": "Romania", 
    "iso2": "RO", 
    "admin_name": "Calarasi", 
    "capital": "", 
    "population": "6851", 
    "population_proper": "6714"
  }, 
  {
    "name": "Livada", 
    "lat": "47.8667", 
    "lng": "23.1333", 
    "country": "Romania", 
    "iso2": "RO", 
    "admin_name": "Satu Mare", 
    "capital": "", 
    "population": "6773", 
    "population_proper": "5892"
  }, 
  {
    "name": "Faget", 
    "lat": "45.8517", 
    "lng": "22.1744", 
    "country": "Romania", 
    "iso2": "RO", 
    "admin_name": "Timis", 
    "capital": "", 
    "population": "6761", 
    "population_proper": "6595"
  }, 
  {
    "name": "Teius", 
    "lat": "46.2000", 
    "lng": "23.6800", 
    "country": "Romania", 
    "iso2": "RO", 
    "admin_name": "Alba", 
    "capital": "", 
    "population": "6695", 
    "population_proper": "6308"
  }, 
  {
    "name": "Lehliu-Gara", 
    "lat": "44.4383", 
    "lng": "26.8533", 
    "country": "Romania", 
    "iso2": "RO", 
    "admin_name": "Calarasi", 
    "capital": "", 
    "population": "6502", 
    "population_proper": "5991"
  }, 
  {
    "name": "Horezu", 
    "lat": "45.1433", 
    "lng": "23.9917", 
    "country": "Romania", 
    "iso2": "RO", 
    "admin_name": "Valcea", 
    "capital": "", 
    "population": "6467", 
    "population_proper": "6467"
  }, 
  {
    "name": "Dancu", 
    "lat": "47.1530", 
    "lng": "27.6619", 
    "country": "Romania", 
    "iso2": "RO", 
    "admin_name": "Iasi", 
    "capital": "", 
    "population": "6444", 
    "population_proper": "6444"
  }, 
  {
    "name": "Piatra Olt", 
    "lat": "44.3667", 
    "lng": "24.2667", 
    "country": "Romania", 
    "iso2": "RO", 
    "admin_name": "Olt", 
    "capital": "", 
    "population": "6299", 
    "population_proper": "6000"
  }, 
  {
    "name": "Bujor", 
    "lat": "45.8667", 
    "lng": "27.9000", 
    "country": "Romania", 
    "iso2": "RO", 
    "admin_name": "Galati", 
    "capital": "", 
    "population": "6299", 
    "population_proper": "5946"
  }, 
  {
    "name": "Balotesti", 
    "lat": "44.6167", 
    "lng": "26.1000", 
    "country": "Romania", 
    "iso2": "RO", 
    "admin_name": "Ilfov", 
    "capital": "", 
    "population": "6286", 
    "population_proper": "6286"
  }, 
  {
    "name": "Deta", 
    "lat": "45.4022", 
    "lng": "21.2508", 
    "country": "Romania", 
    "iso2": "RO", 
    "admin_name": "Timis", 
    "capital": "", 
    "population": "6260", 
    "population_proper": "5670"
  }, 
  {
    "name": "Ardud", 
    "lat": "47.6333", 
    "lng": "22.8833", 
    "country": "Romania", 
    "iso2": "RO", 
    "admin_name": "Satu Mare", 
    "capital": "", 
    "population": "6231", 
    "population_proper": "6124"
  }, 
  {
    "name": "Lunca Cetatuii", 
    "lat": "47.0931", 
    "lng": "27.5662", 
    "country": "Romania", 
    "iso2": "RO", 
    "admin_name": "Iasi", 
    "capital": "", 
    "population": "6227", 
    "population_proper": "6227"
  }, 
  {
    "name": "Dragalina", 
    "lat": "44.4333", 
    "lng": "27.3333", 
    "country": "Romania", 
    "iso2": "RO", 
    "admin_name": "Calarasi", 
    "capital": "", 
    "population": "6218", 
    "population_proper": "6218"
  }, 
  {
    "name": "Balan", 
    "lat": "46.6497", 
    "lng": "25.8100", 
    "country": "Romania", 
    "iso2": "RO", 
    "admin_name": "Harghita", 
    "capital": "", 
    "population": "6115", 
    "population_proper": "5414"
  }, 
  {
    "name": "Roseti", 
    "lat": "44.2167", 
    "lng": "27.4333", 
    "country": "Romania", 
    "iso2": "RO", 
    "admin_name": "Calarasi", 
    "capital": "", 
    "population": "6070", 
    "population_proper": "6070"
  }, 
  {
    "name": "Cornetu", 
    "lat": "44.3500", 
    "lng": "25.9500", 
    "country": "Romania", 
    "iso2": "RO", 
    "admin_name": "Ilfov", 
    "capital": "", 
    "population": "6040", 
    "population_proper": "6040"
  }, 
  {
    "name": "Slanic", 
    "lat": "45.2333", 
    "lng": "25.9392", 
    "country": "Romania", 
    "iso2": "RO", 
    "admin_name": "Prahova", 
    "capital": "", 
    "population": "6034", 
    "population_proper": "4669"
  }, 
  {
    "name": "Sebis", 
    "lat": "46.3728", 
    "lng": "22.1294", 
    "country": "Romania", 
    "iso2": "RO", 
    "admin_name": "Arad", 
    "capital": "", 
    "population": "5979", 
    "population_proper": "5410"
  }, 
  {
    "name": "Berceni", 
    "lat": "44.3167", 
    "lng": "26.1833", 
    "country": "Romania", 
    "iso2": "RO", 
    "admin_name": "Ilfov", 
    "capital": "", 
    "population": "5942", 
    "population_proper": "5942"
  }, 
  {
    "name": "Savinesti", 
    "lat": "46.8602", 
    "lng": "26.4686", 
    "country": "Romania", 
    "iso2": "RO", 
    "admin_name": "Neamt", 
    "capital": "", 
    "population": "5921", 
    "population_proper": "5921"
  }, 
  {
    "name": "Frasin", 
    "lat": "47.5183", 
    "lng": "25.7819", 
    "country": "Romania", 
    "iso2": "RO", 
    "admin_name": "Suceava", 
    "capital": "", 
    "population": "5876", 
    "population_proper": "5817"
  }, 
  {
    "name": "Gataia", 
    "lat": "45.3917", 
    "lng": "21.3969", 
    "country": "Romania", 
    "iso2": "RO", 
    "admin_name": "Timis", 
    "capital": "", 
    "population": "5861", 
    "population_proper": "5473"
  }, 
  {
    "name": "Potcoava", 
    "lat": "44.4833", 
    "lng": "24.6158", 
    "country": "Romania", 
    "iso2": "RO", 
    "admin_name": "Olt", 
    "capital": "", 
    "population": "5743", 
    "population_proper": "5229"
  }, 
  {
    "name": "Fundeni", 
    "lat": "44.3833", 
    "lng": "26.3667", 
    "country": "Romania", 
    "iso2": "RO", 
    "admin_name": "Calarasi", 
    "capital": "", 
    "population": "5658", 
    "population_proper": "5658"
  }, 
  {
    "name": "Giroc", 
    "lat": "45.6822", 
    "lng": "21.2339", 
    "country": "Romania", 
    "iso2": "RO", 
    "admin_name": "Timis", 
    "capital": "", 
    "population": "5652", 
    "population_proper": "5652"
  }, 
  {
    "name": "Curcani", 
    "lat": "44.2000", 
    "lng": "26.5833", 
    "country": "Romania", 
    "iso2": "RO", 
    "admin_name": "Calarasi", 
    "capital": "", 
    "population": "5609", 
    "population_proper": "5609"
  }, 
  {
    "name": "Miercurea Nirajului", 
    "lat": "46.5300", 
    "lng": "24.8000", 
    "country": "Romania", 
    "iso2": "RO", 
    "admin_name": "Mures", 
    "capital": "", 
    "population": "5554", 
    "population_proper": "5414"
  }, 
  {
    "name": "Glina", 
    "lat": "44.3833", 
    "lng": "26.2500", 
    "country": "Romania", 
    "iso2": "RO", 
    "admin_name": "Ilfov", 
    "capital": "", 
    "population": "5494", 
    "population_proper": "5494"
  }, 
  {
    "name": "Copsa Mica", 
    "lat": "46.1125", 
    "lng": "24.2306", 
    "country": "Romania", 
    "iso2": "RO", 
    "admin_name": "Sibiu", 
    "capital": "", 
    "population": "5404", 
    "population_proper": "4570"
  }, 
  {
    "name": "Sancraiu de Mures", 
    "lat": "46.5500", 
    "lng": "24.5200", 
    "country": "Romania", 
    "iso2": "RO", 
    "admin_name": "Mures", 
    "capital": "", 
    "population": "5385", 
    "population_proper": "5385"
  }, 
  {
    "name": "Baia de Arama", 
    "lat": "45.0000", 
    "lng": "22.8114", 
    "country": "Romania", 
    "iso2": "RO", 
    "admin_name": "Mehedinti", 
    "capital": "", 
    "population": "5349", 
    "population_proper": "4478"
  }, 
  {
    "name": "Vanju-Mare", 
    "lat": "44.4250", 
    "lng": "22.8694", 
    "country": "Romania", 
    "iso2": "RO", 
    "admin_name": "Mehedinti", 
    "capital": "", 
    "population": "5311", 
    "population_proper": "5078"
  }, 
  {
    "name": "Geoagiu", 
    "lat": "45.9200", 
    "lng": "23.2000", 
    "country": "Romania", 
    "iso2": "RO", 
    "admin_name": "Hunedoara", 
    "capital": "", 
    "population": "5294", 
    "population_proper": "5087"
  }, 
  {
    "name": "Dobroesti", 
    "lat": "44.4511", 
    "lng": "26.1806", 
    "country": "Romania", 
    "iso2": "RO", 
    "admin_name": "Ilfov", 
    "capital": "", 
    "population": "5274", 
    "population_proper": "5274"
  }, 
  {
    "name": "Rupea", 
    "lat": "46.0389", 
    "lng": "25.2225", 
    "country": "Romania", 
    "iso2": "RO", 
    "admin_name": "Brasov", 
    "capital": "", 
    "population": "5269", 
    "population_proper": "4907"
  }, 
  {
    "name": "Abrud", 
    "lat": "46.2739", 
    "lng": "23.0633", 
    "country": "Romania", 
    "iso2": "RO", 
    "admin_name": "Alba", 
    "capital": "", 
    "population": "5072", 
    "population_proper": "4360"
  }, 
  {
    "name": "Isaccea", 
    "lat": "45.2697", 
    "lng": "28.4597", 
    "country": "Romania", 
    "iso2": "RO", 
    "admin_name": "Tulcea", 
    "capital": "", 
    "population": "5026", 
    "population_proper": "4408"
  }, 
  {
    "name": "Baile Herculane", 
    "lat": "44.8786", 
    "lng": "22.4142", 
    "country": "Romania", 
    "iso2": "RO", 
    "admin_name": "Caras-Severin", 
    "capital": "", 
    "population": "5008", 
    "population_proper": "3787"
  }, 
  {
    "name": "Tunari", 
    "lat": "44.5500", 
    "lng": "26.1333", 
    "country": "Romania", 
    "iso2": "RO", 
    "admin_name": "Ilfov", 
    "capital": "", 
    "population": "5007", 
    "population_proper": "5007"
  }, 
  {
    "name": "Milisauti", 
    "lat": "47.7864", 
    "lng": "26.0044", 
    "country": "Romania", 
    "iso2": "RO", 
    "admin_name": "Suceava", 
    "capital": "", 
    "population": "5005", 
    "population_proper": "4657"
  }, 
  {
    "name": "Valea Lupului", 
    "lat": "47.1833", 
    "lng": "27.5000", 
    "country": "Romania", 
    "iso2": "RO", 
    "admin_name": "Iasi", 
    "capital": "", 
    "population": "4982", 
    "population_proper": "4982"
  }, 
  {
    "name": "Cavnic", 
    "lat": "47.6608", 
    "lng": "23.8778", 
    "country": "Romania", 
    "iso2": "RO", 
    "admin_name": "Maramures", 
    "capital": "", 
    "population": "4976", 
    "population_proper": "4264"
  }, 
  {
    "name": "Fierbinti-Targ", 
    "lat": "44.6833", 
    "lng": "26.3833", 
    "country": "Romania", 
    "iso2": "RO", 
    "admin_name": "Ilfov", 
    "capital": "", 
    "population": "4969", 
    "population_proper": "4620"
  }, 
  {
    "name": "Ulmeni", 
    "lat": "44.1500", 
    "lng": "26.7167", 
    "country": "Romania", 
    "iso2": "RO", 
    "admin_name": "Calarasi", 
    "capital": "", 
    "population": "4962", 
    "population_proper": "4962"
  }, 
  {
    "name": "Volovat", 
    "lat": "47.8167", 
    "lng": "25.9000", 
    "country": "Romania", 
    "iso2": "RO", 
    "admin_name": "Suceava", 
    "capital": "", 
    "population": "4952", 
    "population_proper": "4952"
  }, 
  {
    "name": "Salistea de Sus", 
    "lat": "47.6500", 
    "lng": "24.3500", 
    "country": "Romania", 
    "iso2": "RO", 
    "admin_name": "Maramures", 
    "capital": "", 
    "population": "4893", 
    "population_proper": "4856"
  }, 
  {
    "name": "Balcesti", 
    "lat": "44.6167", 
    "lng": "23.9394", 
    "country": "Romania", 
    "iso2": "RO", 
    "admin_name": "Valcea", 
    "capital": "", 
    "population": "4864", 
    "population_proper": "4235"
  }, 
  {
    "name": "Agigea", 
    "lat": "44.0917", 
    "lng": "28.6114", 
    "country": "Romania", 
    "iso2": "RO", 
    "admin_name": "Constanta", 
    "capital": "", 
    "population": "4853", 
    "population_proper": "4853"
  }, 
  {
    "name": "Berbesti", 
    "lat": "44.9881", 
    "lng": "23.8683", 
    "country": "Romania", 
    "iso2": "RO", 
    "admin_name": "Valcea", 
    "capital": "", 
    "population": "4836", 
    "population_proper": "4231"
  }, 
  {
    "name": "Cernele", 
    "lat": "44.3344", 
    "lng": "23.7444", 
    "country": "Romania", 
    "iso2": "RO", 
    "admin_name": "Dolj", 
    "capital": "", 
    "population": "4783", 
    "population_proper": "4783"
  }, 
  {
    "name": "Bucov", 
    "lat": "44.9667", 
    "lng": "26.0833", 
    "country": "Romania", 
    "iso2": "RO", 
    "admin_name": "Prahova", 
    "capital": "", 
    "population": "4783", 
    "population_proper": "4783"
  }, 
  {
    "name": "Predeal", 
    "lat": "45.5044", 
    "lng": "25.5783", 
    "country": "Romania", 
    "iso2": "RO", 
    "admin_name": "Brasov", 
    "capital": "", 
    "population": "4755", 
    "population_proper": "4020"
  }, 
  {
    "name": "Cristesti", 
    "lat": "46.5000", 
    "lng": "24.4833", 
    "country": "Romania", 
    "iso2": "RO", 
    "admin_name": "Mures", 
    "capital": "", 
    "population": "4754", 
    "population_proper": "4754"
  }, 
  {
    "name": "Clinceni", 
    "lat": "44.3778", 
    "lng": "25.9431", 
    "country": "Romania", 
    "iso2": "RO", 
    "admin_name": "Ilfov", 
    "capital": "", 
    "population": "4708", 
    "population_proper": "4708"
  }, 
  {
    "name": "Bascov", 
    "lat": "44.9000", 
    "lng": "24.8167", 
    "country": "Romania", 
    "iso2": "RO", 
    "admin_name": "Arges", 
    "capital": "", 
    "population": "4653", 
    "population_proper": "4653"
  }, 
  {
    "name": "Ghiroda", 
    "lat": "45.7867", 
    "lng": "21.3147", 
    "country": "Romania", 
    "iso2": "RO", 
    "admin_name": "Timis", 
    "capital": "", 
    "population": "4605", 
    "population_proper": "4605"
  }, 
  {
    "name": "Doicesti", 
    "lat": "44.9833", 
    "lng": "25.4000", 
    "country": "Romania", 
    "iso2": "RO", 
    "admin_name": "Dambovita", 
    "capital": "", 
    "population": "4584", 
    "population_proper": "4584"
  }, 
  {
    "name": "Chiajna", 
    "lat": "44.4600", 
    "lng": "25.9750", 
    "country": "Romania", 
    "iso2": "RO", 
    "admin_name": "Ilfov", 
    "capital": "", 
    "population": "4511", 
    "population_proper": "4511"
  }, 
  {
    "name": "Azuga", 
    "lat": "45.4450", 
    "lng": "25.5553", 
    "country": "Romania", 
    "iso2": "RO", 
    "admin_name": "Prahova", 
    "capital": "", 
    "population": "4440", 
    "population_proper": "3901"
  }, 
  {
    "name": "Voitinel", 
    "lat": "47.8833", 
    "lng": "25.7667", 
    "country": "Romania", 
    "iso2": "RO", 
    "admin_name": "Suceava", 
    "capital": "", 
    "population": "4387", 
    "population_proper": "4387"
  }, 
  {
    "name": "Aninoasa", 
    "lat": "45.4111", 
    "lng": "23.3139", 
    "country": "Romania", 
    "iso2": "RO", 
    "admin_name": "Hunedoara", 
    "capital": "", 
    "population": "4360", 
    "population_proper": "3369"
  }, 
  {
    "name": "Bechet", 
    "lat": "43.7833", 
    "lng": "23.9500", 
    "country": "Romania", 
    "iso2": "RO", 
    "admin_name": "Dolj", 
    "capital": "", 
    "population": "4355", 
    "population_proper": "4355"
  }, 
  {
    "name": "Valea Mare-Podgoria", 
    "lat": "44.8851", 
    "lng": "24.9061", 
    "country": "Romania", 
    "iso2": "RO", 
    "admin_name": "Arges", 
    "capital": "", 
    "population": "4318", 
    "population_proper": "4318"
  }, 
  {
    "name": "Floresti", 
    "lat": "44.5085", 
    "lng": "25.6938", 
    "country": "Romania", 
    "iso2": "RO", 
    "admin_name": "Giurgiu", 
    "capital": "", 
    "population": "4290", 
    "population_proper": "4290"
  }, 
  {
    "name": "Victoria", 
    "lat": "47.3000", 
    "lng": "27.6000", 
    "country": "Romania", 
    "iso2": "RO", 
    "admin_name": "Iasi", 
    "capital": "", 
    "population": "4282", 
    "population_proper": "3819"
  }, 
  {
    "name": "Bucecea", 
    "lat": "47.7667", 
    "lng": "26.4333", 
    "country": "Romania", 
    "iso2": "RO", 
    "admin_name": "Botosani", 
    "capital": "", 
    "population": "4274", 
    "population_proper": "4171"
  }, 
  {
    "name": "Ciocanesti", 
    "lat": "44.2000", 
    "lng": "27.0833", 
    "country": "Romania", 
    "iso2": "RO", 
    "admin_name": "Calarasi", 
    "capital": "", 
    "population": "4257", 
    "population_proper": "4257"
  }, 
  {
    "name": "Cenad", 
    "lat": "46.0914", 
    "lng": "20.5453", 
    "country": "Romania", 
    "iso2": "RO", 
    "admin_name": "Timis", 
    "capital": "", 
    "population": "4207", 
    "population_proper": "3537"
  }, 
  {
    "name": "Slanic-Moldova", 
    "lat": "46.2069", 
    "lng": "26.4306", 
    "country": "Romania", 
    "iso2": "RO", 
    "admin_name": "Bacau", 
    "capital": "", 
    "population": "4198", 
    "population_proper": "4011"
  }, 
  {
    "name": "Perisoru", 
    "lat": "44.4500", 
    "lng": "27.5500", 
    "country": "Romania", 
    "iso2": "RO", 
    "admin_name": "Calarasi", 
    "capital": "", 
    "population": "4174", 
    "population_proper": "4174"
  }, 
  {
    "name": "Ungheni-Prut", 
    "lat": "47.2139", 
    "lng": "27.7639", 
    "country": "Romania", 
    "iso2": "RO", 
    "admin_name": "Iasi", 
    "capital": "", 
    "population": "4173", 
    "population_proper": "3582"
  }, 
  {
    "name": "Pleasa", 
    "lat": "45.0038", 
    "lng": "26.0714", 
    "country": "Romania", 
    "iso2": "RO", 
    "admin_name": "Prahova", 
    "capital": "", 
    "population": "4123", 
    "population_proper": "4123"
  }, 
  {
    "name": "Baia de Aries", 
    "lat": "46.3794", 
    "lng": "23.2797", 
    "country": "Romania", 
    "iso2": "RO", 
    "admin_name": "Alba", 
    "capital": "", 
    "population": "4074", 
    "population_proper": "3035"
  }, 
  {
    "name": "Fundeni", 
    "lat": "44.4595", 
    "lng": "26.1668", 
    "country": "Romania", 
    "iso2": "RO", 
    "admin_name": "Bucuresti", 
    "capital": "", 
    "population": "4051", 
    "population_proper": "4051"
  }, 
  {
    "name": "Ciorogarla", 
    "lat": "44.4500", 
    "lng": "25.8833", 
    "country": "Romania", 
    "iso2": "RO", 
    "admin_name": "Ilfov", 
    "capital": "", 
    "population": "3919", 
    "population_proper": "3919"
  }, 
  {
    "name": "Miercurea Sibiului", 
    "lat": "45.8833", 
    "lng": "23.7833", 
    "country": "Romania", 
    "iso2": "RO", 
    "admin_name": "Sibiu", 
    "capital": "", 
    "population": "3910", 
    "population_proper": "3619"
  }, 
  {
    "name": "Radovanu", 
    "lat": "44.2000", 
    "lng": "26.5167", 
    "country": "Romania", 
    "iso2": "RO", 
    "admin_name": "Calarasi", 
    "capital": "", 
    "population": "3802", 
    "population_proper": "3802"
  }, 
  {
    "name": "Sfantu Ilie", 
    "lat": "47.6366", 
    "lng": "26.2084", 
    "country": "Romania", 
    "iso2": "RO", 
    "admin_name": "Suceava", 
    "capital": "", 
    "population": "3788", 
    "population_proper": "3788"
  }, 
  {
    "name": "Galbinasi", 
    "lat": "44.3167", 
    "lng": "26.4167", 
    "country": "Romania", 
    "iso2": "RO", 
    "admin_name": "Calarasi", 
    "capital": "", 
    "population": "3772", 
    "population_proper": "3772"
  }, 
  {
    "name": "Ipotesti", 
    "lat": "47.6167", 
    "lng": "26.2833", 
    "country": "Romania", 
    "iso2": "RO", 
    "admin_name": "Suceava", 
    "capital": "", 
    "population": "3759", 
    "population_proper": "3759"
  }, 
  {
    "name": "Dor Marunt", 
    "lat": "44.4500", 
    "lng": "26.9167", 
    "country": "Romania", 
    "iso2": "RO", 
    "admin_name": "Calarasi", 
    "capital": "", 
    "population": "3754", 
    "population_proper": "3754"
  }, 
  {
    "name": "Blejoiu", 
    "lat": "45.0000", 
    "lng": "26.0167", 
    "country": "Romania", 
    "iso2": "RO", 
    "admin_name": "Prahova", 
    "capital": "", 
    "population": "3638", 
    "population_proper": "3638"
  }, 
  {
    "name": "Parcovaci", 
    "lat": "47.4363", 
    "lng": "26.8473", 
    "country": "Romania", 
    "iso2": "RO", 
    "admin_name": "Iasi", 
    "capital": "", 
    "population": "3607", 
    "population_proper": "3607"
  }, 
  {
    "name": "Faurei", 
    "lat": "45.0842", 
    "lng": "27.2728", 
    "country": "Romania", 
    "iso2": "RO", 
    "admin_name": "Braila", 
    "capital": "", 
    "population": "3592", 
    "population_proper": "3008"
  }, 
  {
    "name": "Vasilati", 
    "lat": "44.3000", 
    "lng": "26.4500", 
    "country": "Romania", 
    "iso2": "RO", 
    "admin_name": "Calarasi", 
    "capital": "", 
    "population": "3590", 
    "population_proper": "3590"
  }, 
  {
    "name": "Manastirea", 
    "lat": "44.2167", 
    "lng": "26.9000", 
    "country": "Romania", 
    "iso2": "RO", 
    "admin_name": "Calarasi", 
    "capital": "", 
    "population": "3573", 
    "population_proper": "3573"
  }, 
  {
    "name": "Ocna Sibiului", 
    "lat": "45.8747", 
    "lng": "24.0667", 
    "country": "Romania", 
    "iso2": "RO", 
    "admin_name": "Sibiu", 
    "capital": "", 
    "population": "3562", 
    "population_proper": "3434"
  }, 
  {
    "name": "Cornu de Jos", 
    "lat": "45.1553", 
    "lng": "25.7018", 
    "country": "Romania", 
    "iso2": "RO", 
    "admin_name": "Prahova", 
    "capital": "", 
    "population": "3456", 
    "population_proper": "3456"
  }, 
  {
    "name": "Margineni", 
    "lat": "46.5833", 
    "lng": "26.8333", 
    "country": "Romania", 
    "iso2": "RO", 
    "admin_name": "Bacau", 
    "capital": "", 
    "population": "3446", 
    "population_proper": "3446"
  }, 
  {
    "name": "Santana de Mures", 
    "lat": "46.5700", 
    "lng": "24.5500", 
    "country": "Romania", 
    "iso2": "RO", 
    "admin_name": "Mures", 
    "capital": "", 
    "population": "3441", 
    "population_proper": "3441"
  }, 
  {
    "name": "Adjudeni", 
    "lat": "47.0141", 
    "lng": "26.9490", 
    "country": "Romania", 
    "iso2": "RO", 
    "admin_name": "Neamt", 
    "capital": "", 
    "population": "3429", 
    "population_proper": "3429"
  }, 
  {
    "name": "Chiselet", 
    "lat": "44.1833", 
    "lng": "26.8500", 
    "country": "Romania", 
    "iso2": "RO", 
    "admin_name": "Calarasi", 
    "capital": "", 
    "population": "3392", 
    "population_proper": "3392"
  }, 
  {
    "name": "Ocnele Mari", 
    "lat": "45.0833", 
    "lng": "24.3167", 
    "country": "Romania", 
    "iso2": "RO", 
    "admin_name": "Valcea", 
    "capital": "", 
    "population": "3309", 
    "population_proper": "3134"
  }, 
  {
    "name": "Capatanesti", 
    "lat": "45.1894", 
    "lng": "26.7929", 
    "country": "Romania", 
    "iso2": "RO", 
    "admin_name": "Buzau", 
    "capital": "", 
    "population": "3296", 
    "population_proper": "3296"
  }, 
  {
    "name": "Cazanesti", 
    "lat": "44.6192", 
    "lng": "27.0100", 
    "country": "Romania", 
    "iso2": "RO", 
    "admin_name": "Ialomita", 
    "capital": "", 
    "population": "3271", 
    "population_proper": "2938"
  }, 
  {
    "name": "Maracineni", 
    "lat": "44.9000", 
    "lng": "24.8833", 
    "country": "Romania", 
    "iso2": "RO", 
    "admin_name": "Arges", 
    "capital": "", 
    "population": "3228", 
    "population_proper": "3228"
  }, 
  {
    "name": "Barcanesti", 
    "lat": "44.8833", 
    "lng": "26.0500", 
    "country": "Romania", 
    "iso2": "RO", 
    "admin_name": "Prahova", 
    "capital": "", 
    "population": "3226", 
    "population_proper": "3226"
  }, 
  {
    "name": "Ploestiori", 
    "lat": "44.9810", 
    "lng": "26.0197", 
    "country": "Romania", 
    "iso2": "RO", 
    "admin_name": "Prahova", 
    "capital": "", 
    "population": "3222", 
    "population_proper": "3222"
  }, 
  {
    "name": "Dragomiresti", 
    "lat": "47.6669", 
    "lng": "24.2914", 
    "country": "Romania", 
    "iso2": "RO", 
    "admin_name": "Maramures", 
    "capital": "", 
    "population": "3213", 
    "population_proper": "3154"
  }, 
  {
    "name": "Malu Spart", 
    "lat": "44.4438", 
    "lng": "25.7157", 
    "country": "Romania", 
    "iso2": "RO", 
    "admin_name": "Giurgiu", 
    "capital": "", 
    "population": "3200", 
    "population_proper": "3200"
  }, 
  {
    "name": "Branesti", 
    "lat": "45.0417", 
    "lng": "25.4194", 
    "country": "Romania", 
    "iso2": "RO", 
    "admin_name": "Dambovita", 
    "capital": "", 
    "population": "3171", 
    "population_proper": "3171"
  }, 
  {
    "name": "Cernica", 
    "lat": "44.4167", 
    "lng": "26.2833", 
    "country": "Romania", 
    "iso2": "RO", 
    "admin_name": "Ilfov", 
    "capital": "", 
    "population": "3136", 
    "population_proper": "3136"
  }, 
  {
    "name": "Copacenii de Jos", 
    "lat": "44.2722", 
    "lng": "26.0792", 
    "country": "Romania", 
    "iso2": "RO", 
    "admin_name": "Giurgiu", 
    "capital": "", 
    "population": "3131", 
    "population_proper": "3131"
  }, 
  {
    "name": "Tanganu", 
    "lat": "44.4070", 
    "lng": "26.3090", 
    "country": "Romania", 
    "iso2": "RO", 
    "admin_name": "Calarasi", 
    "capital": "", 
    "population": "3110", 
    "population_proper": "3110"
  }, 
  {
    "name": "Banesti", 
    "lat": "45.1000", 
    "lng": "25.7667", 
    "country": "Romania", 
    "iso2": "RO", 
    "admin_name": "Prahova", 
    "capital": "", 
    "population": "3096", 
    "population_proper": "3096"
  }, 
  {
    "name": "Tamaseni", 
    "lat": "46.9940", 
    "lng": "26.9505", 
    "country": "Romania", 
    "iso2": "RO", 
    "admin_name": "Neamt", 
    "capital": "", 
    "population": "3064", 
    "population_proper": "3064"
  }, 
  {
    "name": "Darasti-Ilfov", 
    "lat": "44.3167", 
    "lng": "26.0167", 
    "country": "Romania", 
    "iso2": "RO", 
    "admin_name": "Ilfov", 
    "capital": "", 
    "population": "3026", 
    "population_proper": "3026"
  }, 
  {
    "name": "Iazu", 
    "lat": "44.7177", 
    "lng": "25.8309", 
    "country": "Romania", 
    "iso2": "RO", 
    "admin_name": "Dambovita", 
    "capital": "", 
    "population": "3025", 
    "population_proper": "3025"
  }, 
  {
    "name": "Tatarani", 
    "lat": "44.8931", 
    "lng": "26.0348", 
    "country": "Romania", 
    "iso2": "RO", 
    "admin_name": "Prahova", 
    "capital": "", 
    "population": "3013", 
    "population_proper": "3013"
  }, 
  {
    "name": "Goranu", 
    "lat": "45.1052", 
    "lng": "24.3843", 
    "country": "Romania", 
    "iso2": "RO", 
    "admin_name": "Valcea", 
    "capital": "", 
    "population": "3010", 
    "population_proper": "3010"
  }, 
  {
    "name": "Maracineni", 
    "lat": "45.2000", 
    "lng": "26.8000", 
    "country": "Romania", 
    "iso2": "RO", 
    "admin_name": "Buzau", 
    "capital": "", 
    "population": "2996", 
    "population_proper": "2996"
  }, 
  {
    "name": "Branistea", 
    "lat": "44.6833", 
    "lng": "25.5833", 
    "country": "Romania", 
    "iso2": "RO", 
    "admin_name": "Dambovita", 
    "capital": "", 
    "population": "2978", 
    "population_proper": "2978"
  }, 
  {
    "name": "Buciumeni", 
    "lat": "44.5489", 
    "lng": "25.9633", 
    "country": "Romania", 
    "iso2": "RO", 
    "admin_name": "Ilfov", 
    "capital": "", 
    "population": "2976", 
    "population_proper": "2976"
  }, 
  {
    "name": "Fantanele", 
    "lat": "44.7126", 
    "lng": "25.8812", 
    "country": "Romania", 
    "iso2": "RO", 
    "admin_name": "Dambovita", 
    "capital": "", 
    "population": "2934", 
    "population_proper": "2934"
  }, 
  {
    "name": "Frumusani", 
    "lat": "44.3000", 
    "lng": "26.3333", 
    "country": "Romania", 
    "iso2": "RO", 
    "admin_name": "Calarasi", 
    "capital": "", 
    "population": "2916", 
    "population_proper": "2916"
  }, 
  {
    "name": "Beresti-Targ", 
    "lat": "46.1000", 
    "lng": "27.8833", 
    "country": "Romania", 
    "iso2": "RO", 
    "admin_name": "Galati", 
    "capital": "", 
    "population": "2916", 
    "population_proper": "2473"
  }, 
  {
    "name": "Balaceanca", 
    "lat": "44.3931", 
    "lng": "26.2897", 
    "country": "Romania", 
    "iso2": "RO", 
    "admin_name": "Ilfov", 
    "capital": "", 
    "population": "2865", 
    "population_proper": "2865"
  }, 
  {
    "name": "Doua Mai", 
    "lat": "43.7872", 
    "lng": "28.5775", 
    "country": "Romania", 
    "iso2": "RO", 
    "admin_name": "Constanta", 
    "capital": "", 
    "population": "2848", 
    "population_proper": "2848"
  }, 
  {
    "name": "Catelu", 
    "lat": "44.4031", 
    "lng": "26.2177", 
    "country": "Romania", 
    "iso2": "RO", 
    "admin_name": "Ilfov", 
    "capital": "", 
    "population": "2790", 
    "population_proper": "2790"
  }, 
  {
    "name": "Palanca", 
    "lat": "44.4743", 
    "lng": "25.7247", 
    "country": "Romania", 
    "iso2": "RO", 
    "admin_name": "Giurgiu", 
    "capital": "", 
    "population": "2775", 
    "population_proper": "2775"
  }, 
  {
    "name": "Stancea", 
    "lat": "44.1367", 
    "lng": "26.8129", 
    "country": "Romania", 
    "iso2": "RO", 
    "admin_name": "Calarasi", 
    "capital": "", 
    "population": "2744", 
    "population_proper": "2744"
  }, 
  {
    "name": "Holboca", 
    "lat": "47.1500", 
    "lng": "27.7000", 
    "country": "Romania", 
    "iso2": "RO", 
    "admin_name": "Iasi", 
    "capital": "", 
    "population": "2737", 
    "population_proper": "2737"
  }, 
  {
    "name": "Dragomiresti-Deal", 
    "lat": "44.4594", 
    "lng": "25.9460", 
    "country": "Romania", 
    "iso2": "RO", 
    "admin_name": "Ilfov", 
    "capital": "", 
    "population": "2669", 
    "population_proper": "2669"
  }, 
  {
    "name": "Nana", 
    "lat": "44.2667", 
    "lng": "26.5833", 
    "country": "Romania", 
    "iso2": "RO", 
    "admin_name": "Calarasi", 
    "capital": "", 
    "population": "2568", 
    "population_proper": "2568"
  }, 
  {
    "name": "Rasova", 
    "lat": "44.2458", 
    "lng": "27.9344", 
    "country": "Romania", 
    "iso2": "RO", 
    "admin_name": "Calarasi", 
    "capital": "", 
    "population": "2558", 
    "population_proper": "2558"
  }, 
  {
    "name": "Garcina", 
    "lat": "46.9833", 
    "lng": "26.3000", 
    "country": "Romania", 
    "iso2": "RO", 
    "admin_name": "Neamt", 
    "capital": "", 
    "population": "2554", 
    "population_proper": "2554"
  }, 
  {
    "name": "Filipestii de Targ", 
    "lat": "44.9833", 
    "lng": "25.7833", 
    "country": "Romania", 
    "iso2": "RO", 
    "admin_name": "Prahova", 
    "capital": "", 
    "population": "2553", 
    "population_proper": "2553"
  }, 
  {
    "name": "Decindeni", 
    "lat": "44.9085", 
    "lng": "25.3281", 
    "country": "Romania", 
    "iso2": "RO", 
    "admin_name": "Dambovita", 
    "capital": "", 
    "population": "2502", 
    "population_proper": "2502"
  }, 
  {
    "name": "Teis", 
    "lat": "44.9635", 
    "lng": "25.4029", 
    "country": "Romania", 
    "iso2": "RO", 
    "admin_name": "Dambovita", 
    "capital": "", 
    "population": "2489", 
    "population_proper": "2489"
  }, 
  {
    "name": "Corbeanca", 
    "lat": "44.6000", 
    "lng": "26.0500", 
    "country": "Romania", 
    "iso2": "RO", 
    "admin_name": "Ilfov", 
    "capital": "", 
    "population": "2475", 
    "population_proper": "2475"
  }, 
  {
    "name": "Viforata", 
    "lat": "44.9604", 
    "lng": "25.4566", 
    "country": "Romania", 
    "iso2": "RO", 
    "admin_name": "Dambovita", 
    "capital": "", 
    "population": "2474", 
    "population_proper": "2474"
  }, 
  {
    "name": "Baile Govora", 
    "lat": "45.0800", 
    "lng": "24.1797", 
    "country": "Romania", 
    "iso2": "RO", 
    "admin_name": "Valcea", 
    "capital": "", 
    "population": "2449", 
    "population_proper": "2158"
  }, 
  {
    "name": "Bogdan Voda", 
    "lat": "47.6903", 
    "lng": "24.2694", 
    "country": "Romania", 
    "iso2": "RO", 
    "admin_name": "Maramures", 
    "capital": "", 
    "population": "2445", 
    "population_proper": "2445"
  }, 
  {
    "name": "Solca", 
    "lat": "47.7025", 
    "lng": "25.8317", 
    "country": "Romania", 
    "iso2": "RO", 
    "admin_name": "Suceava", 
    "capital": "", 
    "population": "2405", 
    "population_proper": "2405"
  }, 
  {
    "name": "Ciurea", 
    "lat": "47.0667", 
    "lng": "27.5833", 
    "country": "Romania", 
    "iso2": "RO", 
    "admin_name": "Iasi", 
    "capital": "", 
    "population": "2403", 
    "population_proper": "2403"
  }, 
  {
    "name": "Razvani", 
    "lat": "44.4212", 
    "lng": "26.8779", 
    "country": "Romania", 
    "iso2": "RO", 
    "admin_name": "Calarasi", 
    "capital": "", 
    "population": "2374", 
    "population_proper": "2374"
  }, 
  {
    "name": "Aninoasa", 
    "lat": "45.0667", 
    "lng": "25.4333", 
    "country": "Romania", 
    "iso2": "RO", 
    "admin_name": "Dambovita", 
    "capital": "", 
    "population": "2347", 
    "population_proper": "2347"
  }, 
  {
    "name": "Cojasca", 
    "lat": "44.7167", 
    "lng": "25.8500", 
    "country": "Romania", 
    "iso2": "RO", 
    "admin_name": "Dambovita", 
    "capital": "", 
    "population": "2317", 
    "population_proper": "2317"
  }, 
  {
    "name": "Vascau", 
    "lat": "46.4797", 
    "lng": "22.4797", 
    "country": "Romania", 
    "iso2": "RO", 
    "admin_name": "Bihor", 
    "capital": "", 
    "population": "2315", 
    "population_proper": "2025"
  }, 
  {
    "name": "Luna de Sus", 
    "lat": "46.7425", 
    "lng": "23.4318", 
    "country": "Romania", 
    "iso2": "RO", 
    "admin_name": "Cluj", 
    "capital": "", 
    "population": "2310", 
    "population_proper": "2310"
  }, 
  {
    "name": "Maxut", 
    "lat": "47.4417", 
    "lng": "26.8930", 
    "country": "Romania", 
    "iso2": "RO", 
    "admin_name": "Iasi", 
    "capital": "", 
    "population": "2284", 
    "population_proper": "2284"
  }, 
  {
    "name": "Valea Rosie", 
    "lat": "44.1775", 
    "lng": "26.6344", 
    "country": "Romania", 
    "iso2": "RO", 
    "admin_name": "Calarasi", 
    "capital": "", 
    "population": "2276", 
    "population_proper": "2276"
  }, 
  {
    "name": "Darvari", 
    "lat": "44.4213", 
    "lng": "25.8780", 
    "country": "Romania", 
    "iso2": "RO", 
    "admin_name": "Ilfov", 
    "capital": "", 
    "population": "2269", 
    "population_proper": "2269"
  }, 
  {
    "name": "Malu Alb", 
    "lat": "45.7969", 
    "lng": "27.4630", 
    "country": "Romania", 
    "iso2": "RO", 
    "admin_name": "Galati", 
    "capital": "", 
    "population": "2268", 
    "population_proper": "2268"
  }, 
  {
    "name": "Crivat", 
    "lat": "44.2000", 
    "lng": "26.4333", 
    "country": "Romania", 
    "iso2": "RO", 
    "admin_name": "Calarasi", 
    "capital": "", 
    "population": "2243", 
    "population_proper": "2243"
  }, 
  {
    "name": "Miroslava", 
    "lat": "47.1500", 
    "lng": "27.5167", 
    "country": "Romania", 
    "iso2": "RO", 
    "admin_name": "Iasi", 
    "capital": "", 
    "population": "2221", 
    "population_proper": "2221"
  }, 
  {
    "name": "Tonea", 
    "lat": "44.2059", 
    "lng": "27.4103", 
    "country": "Romania", 
    "iso2": "RO", 
    "admin_name": "Calarasi", 
    "capital": "", 
    "population": "2188", 
    "population_proper": "2188"
  }, 
  {
    "name": "Unirea", 
    "lat": "44.2700", 
    "lng": "27.6300", 
    "country": "Romania", 
    "iso2": "RO", 
    "admin_name": "Calarasi", 
    "capital": "", 
    "population": "2177", 
    "population_proper": "2177"
  }, 
  {
    "name": "Cuza Voda", 
    "lat": "44.2667", 
    "lng": "27.2500", 
    "country": "Romania", 
    "iso2": "RO", 
    "admin_name": "Calarasi", 
    "capital": "", 
    "population": "2170", 
    "population_proper": "2170"
  }, 
  {
    "name": "Nucet", 
    "lat": "46.4842", 
    "lng": "22.5614", 
    "country": "Romania", 
    "iso2": "RO", 
    "admin_name": "Bihor", 
    "capital": "", 
    "population": "2165", 
    "population_proper": "1987"
  }, 
  {
    "name": "Lipanesti", 
    "lat": "45.0500", 
    "lng": "26.0167", 
    "country": "Romania", 
    "iso2": "RO", 
    "admin_name": "Prahova", 
    "capital": "", 
    "population": "2160", 
    "population_proper": "2160"
  }, 
  {
    "name": "Urleta", 
    "lat": "45.0860", 
    "lng": "25.7947", 
    "country": "Romania", 
    "iso2": "RO", 
    "admin_name": "Prahova", 
    "capital": "", 
    "population": "2144", 
    "population_proper": "2144"
  }, 
  {
    "name": "Gradistea", 
    "lat": "44.2389", 
    "lng": "27.2124", 
    "country": "Romania", 
    "iso2": "RO", 
    "admin_name": "Calarasi", 
    "capital": "", 
    "population": "2123", 
    "population_proper": "2123"
  }, 
  {
    "name": "Dragomiresti", 
    "lat": "44.9167", 
    "lng": "25.3333", 
    "country": "Romania", 
    "iso2": "RO", 
    "admin_name": "Dambovita", 
    "capital": "", 
    "population": "2122", 
    "population_proper": "2122"
  }, 
  {
    "name": "Independenta", 
    "lat": "44.2833", 
    "lng": "27.1500", 
    "country": "Romania", 
    "iso2": "RO", 
    "admin_name": "Calarasi", 
    "capital": "", 
    "population": "2115", 
    "population_proper": "2115"
  },